name,latitude,longitude
Agarwadi Bus stop,19.0458454,72.9257478
BARC Gate 6,19.0421735,72.9329888
Talao Pali,19.1943844,72.9769617
Thane Station (W),19.1870071,72.9769974
Shishu Gyan Mandir,19.1998001,72.9773091
Vandana Cinema,19.1944146,72.9704975
Parmarth Niketan,19.1947397,72.9667376
Holy Cross High School,19.2031833,72.9787954
Oswal Park,19.214908,72.9761951
Khewra Circle,19.2327205,72.9698867
Patlipada,19.2466893,72.9756162
Neelkanth Heights,19.2210702,72.960688
Shimla,18.9580671,72.8025026
V.B. Phadke Chowk,18.9423036,72.8295885
Vanrai,19.1542887,72.8571264
Peru Baug,19.1662452,72.8527827
Goregaon Check Naka 1,19.1664594,72.8564089
Goregoan Check Naka : 1,19.1654307,72.8586933
Goodluck Company,19.2636426,72.9777448
Deonar Bus Depot Stop,19.0455264,72.9106774
Deonar Bus Depot,19.0458076,72.9117996
Pradeep Society,19.1934946,72.9672874
Aradhana Cinema,19.1927169,72.9683539
"Bus #339 , 256",19.1127889,72.838226
Dhokali Naka,19.2271616,72.9802672
Makhamali Talaav,19.1983533,72.9717513
Khopat S.T. Terminus,19.2007343,72.9733089
Gaondevi,19.1888892,72.9748275
Dongaripada,19.2507342,72.9732294
Waghbil Naka,19.252939,72.9721617
"Brahmand Phase 1,2",19.2412987,72.9813729
Azad Nagar,19.2394741,72.9804978
Brahmand Nagar,19.2475499,72.9860185
Holy Spirit Hospital Stop,19.1269002,72.8672794
shivagi nagar hospital,19.0511704,72.9226495
Charkop Market,19.2156554,72.8286186
Charkop Gaon,19.2088598,72.820816
Asmita Jyoti,19.1966762,72.8274867
Plot no.1;jafri schoole,19.0676018,72.9210453
Dandpada Bus Stop,19.0750577,72.8262477
Parle Tilak,19.1033544,72.8484748
Parleshwar Mandir,19.1030172,72.845919
Parleshwar Mandir,19.1028906,72.845699
Parle Tilak,19.1032759,72.8484399
Guru Prasad Soc.,19.103509,72.8501914
Guru Prasad Soc.,19.1035446,72.8498454
Hanuman Road,19.1036685,72.8513743
Hanuman Road,19.103732,72.8514467
Hanuman Road,19.1037524,72.8528682
Hanuman Road,19.1036864,72.8531418
Rutu Estate / Municipal Commissioner House,19.2480867,72.9779885
Khadi Bhandar,18.9366238,72.833975
Parsi Colony Juhu,19.0997323,72.8276303
Khardanda,19.0747178,72.8228706
Sherli Gaon,19.0708221,72.8229438
Agarwadi Bus stop,19.0452697,72.9257952
Municipal School,19.2286267,72.96736
gadakary bus stop,19.0158884,72.9077266
Civil Court,19.1965215,72.9772907
Court Naka,19.1970281,72.9785836
bus,19.0467441,72.9077411
Nahur Railway Station,19.1545592,72.947053
Civil Hospital,19.1990126,72.977455
MHB Colony,19.2304356,72.8384919
Vartak Nagar Naka,19.2099716,72.9617643
Devdaya Nagar,19.2147003,72.9582095
Babhai Naka,19.228336,72.848131
Vazira Naka,19.2289622,72.8448146
Don Bosco School,19.22961,72.842356
Rajendra Nagar,19.220945,72.856423
Gundavali,19.120531,72.855597
Vandana Cinema,19.1943543,72.9706243
Louis Wadi,19.1962955,72.9623222
Makhamali Talaav,19.1982746,72.9718907
Nitin Junction,19.1990546,72.9635255
Nitin Company,19.199131,72.9631504
Civil Hospital,19.1991279,72.9783895
Khopat S.T. Terminus,19.2006759,72.9733795
Khopat,19.2034255,72.9718687
Abhiruchi,19.2048915,72.9779517
Ambe Ghosale Lake,19.2050729,72.9780954
Rabodi,19.2059468,72.9824728
Majiwada Naka,19.2146243,72.9774544
Majiwada Naka,19.2151588,72.9781249
Devdaya Nagar,19.2149044,72.9583943
Subhash Nagar,19.2164315,72.9740037
Bethany Hospital,19.2203638,72.9618162
Jawahar Nagar,19.2204748,72.97021
Jawahar Nagar,19.2204093,72.9704216
Yeoor Gaon,19.2252703,72.9497466
Lok Puram,19.2257553,72.9701343
Patli Pada,19.2464476,72.9759993
Navy Nagar Colaba,18.9074266,72.8083029
BEST Bus Stop,19.1349864,72.8103871
H12,19.1355677,72.9055659
Highland Park Bus Stop,19.1455779,72.8289055
Highland Park Bus Stop,19.1453296,72.8289055
Ramakrishna Mission Bus Stop,19.0751475,72.8342923
Arya Samaj Mandir,19.0792439,72.8344425
Linking Road Khar,19.0722176,72.8341466
Shoppers Stop,19.0610627,72.8362964
Mahim Church,19.0412534,72.8409951
Mahim,19.0398372,72.8416791
Juhu Versova Link Road,19.1219328,72.8257301
Juhu Versova Link Road,19.1234006,72.8244339
New DN Nagar,19.1185196,72.8287523
Abhishek Society,19.1209933,72.8265373
Juhu Circle,19.1155173,72.8300035
Madh Market,19.1417056,72.7897647
Gyan Kendra School,19.1323644,72.8255906
Mhada,19.1339249,72.8255967
Khadi Bhandar खादी भंडार,18.937494,72.834095
Khadi Bhandar,18.937299,72.834012
Khadi Bhandar,18.9361334,72.8336366
Hutatma Chowk,18.933307,72.831377
Hutatma Chowk,18.933794,72.831275
Hutatma Chowk,18.934017,72.831248
Hutatma Chowk,18.9344811,72.8311697
Pali Mala,19.0620676,72.8295332
Mavis,19.2291897,72.9483531
Yeoor,19.2401909,72.9432964
Shreerang Society,19.2060304,72.980791
Gokul Nagar,19.2085126,72.9771727
Oswal Park,19.2147383,72.9760757
Namdev Wadi,19.1982967,72.9665015
Nehru Tarangan,18.9889131,72.8137151
Nehru Planetarium,18.9882372,72.8136659
Nehru Planetarium,18.9884103,72.8139442
Nehru Planetarium,18.9885926,72.8136844
Nehru Planetarium,18.9887189,72.8139654
Nehru Planetarium,18.9889645,72.8137178
Nehru Planetarium,18.9889924,72.813984
Nehru Planetarium,18.9892201,72.8137307
Nehru Planetarium,18.9892703,72.8137387
Nehru Planetarium,18.9898692,72.8137762
Lotus Court,18.9867462,72.8143166
Lotus Court,18.9868455,72.8141724
Vihar Lake,19.1397456,72.8982965
NITIE,19.1349868,72.8997985
Ramada Hotel,19.1365991,72.8993659
Jeejabhai Bhosale Junction,19.0693281,72.9055478
Chedda Nagar,19.0687175,72.904372
Chedda Nagar,19.0693463,72.9047598
Dr. Babasaheb Ambedkar Udyan/Powai Gardens,19.1256563,72.8948183
Dr. Babasaheb Ambedkar Udyan/Powai Gardens,19.1256107,72.8945178
Dr. Babasaheb Ambedkar Udyan/Powai Gardens,19.1258083,72.893563
Dr. Babasaheb Ambedkar Udyan/Powai Gardens,19.1271565,72.8944052
Ganesh Mandir Bus Stop,19.2157363,72.8230081
Sector 2 Bus Stop,19.2154906,72.8253061
Lokhandwala Link Road,19.1413516,72.831696
Mulund West Check Naka,19.1830083,72.9536289
Madh Jetty,19.1446116,72.8019073
Khodadad Circle,19.0170595,72.8474403
Agar Bazaar,19.0186865,72.8336046
Ravindra Natya Mandir,19.0153724,72.8298764
Mount Mary Steps,19.0481917,72.8250874
Dindoshi,19.1758267,72.8655041
children's home,19.0426822,72.9287838
children's home,19.0428409,72.9286705
Bharat Nagar,19.125318,72.822444
Dr Shyama Prasad Mukherjee Chowk,18.9258816,72.8331644
Dr Shyama Prasad Mukherjee Chowk,18.9262672,72.8316292
Dr Shyama Prasad Mukherjee Chowk,18.9263017,72.8313888
Churchgate,18.9329613,72.8287391
Bus 35 to Int. Airport,19.1008705,72.8446082
Bharat Nagar,19.1253791,72.8225834
Natasha Tower,19.1265274,72.8212852
Orkay,19.121425,72.8706529
Gautam Nagar,19.1185973,72.8701515
C Cross Road,19.1227917,72.8712977
Hill Road Garden,19.0526477,72.8241777
Hill Road Garden,19.0518136,72.8241777
St. Baptist House,19.0480965,72.8258507
Everard Nagar,19.0510806,72.8751884
Everard Nagar,19.0511591,72.8754147
Everard Nagar,19.0505635,72.8749009
Hiranandani Meadows,19.2277842,72.9697028
Muchhala College,19.2628588,72.9683276
Muchhala College,19.2628978,72.9684542
Suvidya High School,19.2294844,72.8285292
Citi Bank BKC,19.0685222,72.8677446
Citi Bank BKC,19.068917,72.8677425
MTNL Telephone Exchange BKC,19.070705,72.8714701
MTNL Telephone Exchange BKC,19.0711079,72.8715467
Shankar Mandir Stop,19.0284541,72.8974533
Four Bungalows,19.1300324,72.8257946
Balakanji Bari,19.0846764,72.8327654
Postal Colony,19.0615161,72.8934087
Postal Colony,19.0612837,72.893718
Shivaji Nagar Bus Terminus,19.0604104,72.9256386
Chembur Naka,19.0542102,72.8934237
Kumbharwada,19.0541889,72.8919114
Shankar Deol,19.0289047,72.8972115
cheeta camp,19.0384776,72.9446669
trombay bus stop..,19.0342614,72.9494324
Shreyas Cinema,19.0938693,72.9129053
GTB Nagar bustop,19.0375439,72.8660211
Lokmanya Tilak hospital,19.0372203,72.8614909
Ninety Feet Jhangri Masjid,19.0638119,72.9284627
Tembhipada Police Chowki,19.1551631,72.9291525
Mohete Patil,19.0534061,72.9351532
New Gautam Nagar Bus Stop,19.0592485,72.9138517
Priyadarshini Bus Stop,19.052385,72.8797934
Priyadarshini,19.0526133,72.8795023
Nehru Nagar- Kurla,19.0617135,72.8837422
Kurla ST Depot,19.0581845,72.8828625
Kurla S T Depot,19.0566368,72.8839847
Shiv Shrusti,19.05534,72.8827444
Priyadarshini Chunabhatti,19.0538077,72.8810985
Shiv Shrusti,19.0551068,72.8823689
Priyadarshini,19.0530974,72.8801854
S.G.Barve Marg Jun.(Thakkar Bappa),19.0577155,72.8866524
Kamgaar Nagar,19.0591834,72.8855608
S.G.Barve Marg Jun (Thakkar Bappa ),19.0577079,72.8867168
Kamgaar Nagar,19.0604559,72.8859707
S.G.Barve Marg Jn.,19.0574236,72.8878253
S.G.Barve Marg Jn.,19.0571586,72.8882584
laalubai bus stop,19.0532391,72.9272898
Wadala Depot,19.014855,72.8524232
Wadala Depot,19.0146931,72.8527142
Sharada Cinema- Dadar,19.0141752,72.8462562
Railway Vasahat,19.0555695,72.9334422
Bus stop,19.0497076,72.9269083
asisi nagar bus stop,19.0606584,72.9121226
deonar colony bus stop,19.0541665,72.9234807
colony bus stop,19.0557346,72.922
Narayana Guru,19.0610068,72.909099
jafary bus stop,19.0675626,72.920868
Gavan Pada,19.1728787,72.961446
Mulund Station (East),19.1713923,72.9582144
L.I.C. Colony,19.2426204,72.8520198
Bhagwati Hospital,19.2401299,72.8544811
Bhagwati Hospital,19.2404837,72.8546667
Sawarkar Nagar,19.2059129,72.9542957
Yashodham Nagar,19.2082381,72.9547561
Road Number 16,19.1935175,72.9535565
Road Number 16,19.1937177,72.953751
Sheetal Bus stop,19.0822198,72.8820808
Kapadia Nagar,19.075081,72.8726577
Gujarat Society,19.0969116,72.851357
Gujarat Society,19.0968975,72.8514137
Domestic Airport,19.0923948,72.8476959
Naik Bus Stop,18.9411989,72.8295989
Bainganwadi,19.0590268,72.9243739
Mayors Bungalow,19.0285848,72.8374441
Bandra Station Road (W),19.0535401,72.8380674
P.Mohd Rafi Chowk,19.0514594,72.8383231
Bandra Station Road (W),19.0545381,72.8376574
Bandra Talao,19.0576069,72.8367365
BEST Quarters,19.153788,72.8388106
BEST Quarters,19.1537756,72.8389945
BEST Nagar,19.1531908,72.8418998
Bhagat Singh Nagar,19.1553842,72.8364691
Oshiwara / Goregaon,19.1526529,72.8357139
Goragaon Depot,19.1546032,72.8353435
Siddarth Nagar / Vivek College,19.1590341,72.8431734
Motilal Nagar Post Office,19.1590964,72.8404664
Shastri Nagar,19.1600204,72.8357679
Shastri Nagar,19.1602875,72.8349201
Vivek College,19.1585064,72.8436438
Shetty Vidyalay,19.1157549,72.9059323
Kokan Nagar,19.1462404,72.9289053
Chembur Colony,19.0440704,72.8935618
sathe nagar bus stop,19.0563052,72.9300455
sandu wadi,19.0533797,72.8974857
thakkar Bappa colony,19.0588081,72.8870031
thakkar Bappa colony,19.0588043,72.8871131
Bhagat Singh Nagar,19.1574924,72.8351265
neeta volvo,19.0529281,72.8991655
N G ACHARYA COLLEGE BUS STOP,19.0585892,72.9078559
dadoji kondev nagar(khardev nagar),19.0570053,72.9096184
ishwar nagar stop,19.1443582,72.9343821
Ghatkopar Station,19.0891525,72.9074443
marol maroshi,19.118084,72.8801296
New DN Nagar,19.1183701,72.8297505
Indian Oil Nagar,19.1275501,72.8311016
Shastri Nagar,19.1593202,72.83632
Kalanagar Bus Station,19.0534895,72.8470962
Bradma Compound,19.1960481,72.9550002
Bradma Compound,19.1959898,72.9550243
Ambika Nagar,19.1976312,72.9558773
Ambika Nagar,19.1976008,72.95577
Kamgar Hospital,19.2037497,72.9541539
Sawarkar Nagar,19.2059344,72.9542089
Vaishali Nagar,19.1870693,72.9458731
Agriculture,19.2000566,72.9538617
Agriculture,19.2001883,72.9540334
Passport Office / M.I.D.C.,19.1911655,72.9555006
Hong Kong Bank,19.0603076,72.8295088
Dr.Cooper Hospital,19.10773,72.8368277
PANCH RASTA,19.176391,72.9525539
Manpada,19.2353185,72.9759496
Teen Hath Naka,19.1888027,72.9633143
Hospital,19.1720086,72.9599368
Hospital,19.1719242,72.9600031
Mulund Station (East),19.1716515,72.958123
Godrej Bus Stop Gate 3,19.1036419,72.9209927
Brahmand Phase 6,19.2466712,72.9847606
Jai Bhawani Nagar,19.201839,72.9537029
CSMI Airport Terminal 2,19.1013571,72.8725934
Manpada,19.2353564,72.9762983
Kasarvadavali Naka,19.2695462,72.9652023
Moti Mahal,19.0595311,72.832103
Moti Mahal,19.0594059,72.832545
Moti Mahal,19.0605962,72.8343053
Moti Mahal,19.0602239,72.8343003
Vasinaka Bus Stop ,19.0328611,72.8962597
Vasinaka Bus Stop ,19.0329566,72.8961803
Maharashtra Weight Bridge,19.1024908,72.888247
Shethiya Nagar,19.0980844,72.8878668
DSouza Nagar,19.0958775,72.8878013
Krishna Nagar,19.0998652,72.8879689
State Bank,19.1072697,72.8880578
Local Karyalay,19.1173423,72.8896404
Godrej East,19.0954163,72.9239959
Centaur Hotel,19.0976156,72.8535743
Neelkanth Heights,19.2205166,72.9605147
Kavyadhara,19.2283998,72.9823284
Sainath Nagar,19.2668893,72.9669569
Hawre City / Boriwade Gaon,19.2599582,72.9576677
St. Peter Church,19.0549428,72.8295354
Samaj mandir hall,19.039572,72.8689282
Shyam Nagar,19.1388906,72.8635167
Shyam Nagar,19.1390311,72.8634202
Majas Depot,19.1390436,72.864928
Majas Depot,19.1392575,72.8652021
Highland Park,19.1699829,72.9322278
Amar Nagar,19.1682012,72.9318798
Powai Chowk,19.1729199,72.9357134
Sri Chhatrapati Shivaji Maharaj Chowk,19.1760451,72.9377018
Mulund Court,19.1742351,72.9584853
Nahur Railway Station,19.1571337,72.9471269
Mulund-Goregaon Link Road,19.1600753,72.9469725
Ceat Company,19.1550979,72.9434127
Nahur Railway St.,19.1532517,72.9436928
Bhandup Village (W),19.1516463,72.9435228
Usha Nagar,19.1521752,72.9414982
Bhandup St (W),19.1453133,72.9351741
Janata Market Bhandup,19.1424705,72.9327314
Mangatram Petrol Pump,19.1390033,72.9306815
Birla Company,19.1351758,72.9288394
Dockyard kanjurmarg St,19.1321315,72.9272826
Huma Talkies,19.129266,72.9256346
Gandhi Nagar Vikhroli,19.1244444,72.925197
Hindustan Company,19.1218576,72.925386
Paper Mill,19.1177512,72.9259916
Hanuman Nagar Nahur,19.1576887,72.9435906
Asha & Usha Estates,19.1082752,72.9240782
Bhandup Pumping Centre,19.1544735,72.9581137
Bhandup Station (W),19.1453065,72.935179
Bhandup Village (W),19.1516367,72.9435238
Ceat Company,19.1551008,72.9433878
Cipla,19.1143057,72.9261236
Dockyard kanjurmarg St,19.1321171,72.9273332
Gandhi Nagar Vikhroli,19.1244467,72.9252165
Hindustan Company,19.1218513,72.925423
Huma Talkies,19.1288065,72.9255023
Kasturi Vidyalay,19.1523249,72.9404673
Mangatram Petrol Pump,19.1389677,72.9307625
Mulund-Goregaon Link Road,19.1600676,72.9469381
Nahur Railway Station,19.1532681,72.9436363
Nahur Railway Station,19.1570448,72.9471855
Paper Mill,19.1177519,72.9259945
Subhash Nagar Nahur,19.1592033,72.9438181
Vikhroli Station (W),19.1115664,72.9258072
Asha & Usha Estates,19.1083768,72.9241059
Vikhroli Depot,19.1028872,72.9194109
Vikhroli Depot,19.102926,72.9194443
Godrej Company (W),19.1048483,72.9216458
Asha & Usha Estates,19.1082931,72.9242238
Vikhroli Station (W),19.1115669,72.9258056
Cipla,19.1137102,72.9260658
Godrej Company (W),19.1047588,72.921816
Kasturi Vidyalay,19.1523403,72.9404669
Usha Nagar,19.152228,72.9415172
Hanuman Nagar Nahur,19.1576884,72.9435847
Bhandup Village Junction,19.1564231,72.9496471
Bhandup Pumping Centre,19.1543599,72.9580531
Bhandup Village Junction,19.1563749,72.949632
Nahur Railway Station,19.1571045,72.9470446
Nahur Railway Station,19.1570991,72.9470363
Mulund-Goregaon Link Road,19.160049,72.9468406
Mulund-Goregaon Link Road,19.1600435,72.9468205
Subhash Nagar Nahur,19.1592196,72.9440781
Subhash Nagar Nahur,19.1576804,72.9436069
Ceat Company,19.1551014,72.943361
Nahur Railway St.,19.1532572,72.9436115
Bhandup Village (W),19.1516235,72.9435206
Usha Nagar,19.1521076,72.9414585
Kasturi Vidyalay,19.1523081,72.9404679
Bhandup Police Station,19.1507502,72.937541
Bhandup Police Station,19.1507095,72.9377675
Bhandup St (W),19.145301,72.9351863
Janata Market Bhandup,19.1426606,72.9331656
Mangatram Petrol Pump,19.1389303,72.9309163
Birla Company,19.1337642,72.9285765
Dockyard kanjurmarg St,19.1320996,72.9273654
Huma Talkies,19.1291369,72.9257479
Gandhi Nagar Vikhroli,19.1244546,72.9253123
Gandhi Nagar Vikhroli,19.1244472,72.9253469
Hindustan Company,19.1222459,72.925463
Hindustan Company,19.1222469,72.9254849
Paper Mill,19.1177514,72.9261443
Paper Mill,19.1177524,72.9261248
Cipla,19.1143102,72.9262487
Cipla,19.1143114,72.9262704
Vikhroli Station (W),19.1115408,72.9259174
Vikhroli Station (W),19.1115374,72.9259404
Asha & Usha Estates,19.1083273,72.9241964
Godrej Company (W),19.104766,72.9217791
Huma Talkies,19.1292547,72.9256798
Godrej Company (W),19.1047986,72.921684
Ghatkopar Depot,19.0881574,72.9184442
Ghatkopar Depot,19.0850096,72.9192149
Gandhi Nagar,19.1249376,72.9258496
Bhandup Station (W),19.1461008,72.935759
Laxmi Nagar,19.089809,72.9156372
Birla Company,19.1364578,72.9296803
Meenatai Thakre Udyan,19.0995553,72.9176441
Shreyas Cinema,19.0929825,72.9123967
Parel Workshop,19.0011788,72.8379759
Wadala Depot,19.014729,72.8526203
Father Agnel Ashram,19.0446272,72.8188582
Churchgate Stn(E) Ahilyabai Holkar Chowk,18.9337346,72.8279106
Churchgate Station(E)/ Ahilyabai Holkar Chowk,18.9337263,72.8277714
Mulund Depot,19.1756748,72.9465497
Mahanagarpalika Udyan,19.1758888,72.9488708
KreSIT,19.1304509,72.9154149
IIT Main Gate,19.1259528,72.9162517
Devi Temple (No Service),19.124662,72.909673
Lake Gate (No Service),19.124787,72.911444
3 Step Park (No Service),19.125228,72.913521
Ananth Quarters (No Service),19.138064,72.916565
QIP (Only Night Service),19.134213,72.918286
KV / Infinity Corridor,19.129685,72.917807
YP Point,19.128459,72.919053
Central Library,19.134129,72.914159
H15,19.137522,72.915098
H1,19.135938,72.914621
H3 / Indoor Swimming Pool,19.135988,72.912338
Tansa /H4,19.135869,72.910525
H6 Canara Bank ATM,19.13515,72.90776
Campus Hub / H5,19.134293,72.910216
H11,19.133599,72.911906
SOM,19.131705,72.915187
H10,19.129561,72.91545
Canara Bank,19.129627,72.915387
Dean House,19.128396,72.915285
Vaishali Bhawan Bus Stop,19.2048992,72.83947
Parijat,19.0511192,72.830252
Sister Bungalow,19.048694,72.8212303
Lilavati Hospital,19.0515428,72.828892
Unit Trust of India,19.0501094,72.8285201
Unit Trust of India,19.0498093,72.8283994
Father Agnel Ashram,19.0452107,72.8193366
Bandstand,19.0463299,72.8195669
Sister Bungalow,19.0494007,72.8208327
Prarthnalaya,19.0507712,72.821807
Prarthnalaya,19.0517004,72.821692
Galaxy Apartments,19.0542349,72.8231
Hill Road Garden,19.0528633,72.8239857
Kandivali Village Bus Stop,19.2051921,72.8416408
St. Andrew's Church,19.0547676,72.8258007
Pali Naka,19.0596878,72.8277485
Kala Hanuman Mandir,19.2048421,72.847011
Bandra Bus Station West,19.0548058,72.839862
Bandra Bus Station West,19.054849,72.8398864
Bandra Talao,19.0585751,72.8377522
Bandra Talao,19.0590218,72.837626
Bandra Talkies,19.0593817,72.8359147
Bandra Talkies,19.059452,72.8356851
Hong Kong Bank,19.0595864,72.8297485
D'Monte Park,19.0596961,72.82622
D'Monte Park,19.059652,72.8260794
Perry Cross Rd,19.0598893,72.8239685
Perry Cross Rd,19.0599285,72.8237263
Additional Commissioner of Police,19.0636621,72.8228376
Additional Commisioner of Police,19.0625391,72.8222696
Rizvi Complex,19.0661453,72.8231354
Rizvi Complex,19.0662286,72.822963
Guru Nanak Road,19.0594575,72.8309751
Ashapura Mandir,19.2162985,72.9778138
Santacruz Police Station,19.0844125,72.8356615
Limani Bhuvan,19.092612,72.9118745
गोपाळ भुवन,19.0906887,72.909789
Shindewadi,19.0121195,72.8435305
Nalanda,19.0746327,72.9124309
Nalanda,19.0748248,72.9130319
Laxmi Nagar,19.0896512,72.9163397
Rani Laxmibai Chowk,19.0410681,72.8625603
Ramabai Nagar,19.0781809,72.9156786
Sahakar Nagar,19.0650193,72.8940799
Jeejabhai Bhosale Junction,19.0700586,72.9058934
Ghatkopar Depot,19.0861675,72.9197865
Kamani,19.0851403,72.887362
Khira Road,19.0853131,72.8379889
Parsi Colony Juhu,19.1019281,72.8332172
Juhu Hotel,19.1033266,72.826946
Prabhat Society,19.1181498,72.8288077
Abhishek Society,19.120773,72.826491
Juhu Hotel,19.1044841,72.8288128
Lakshmi Industrial Estate,19.1340732,72.8320025
Pratap Nagar,19.1410525,72.8566233
Durga Nagar,19.1382892,72.8721925
John Baptist Road,19.0477052,72.8255723
Bandstand,19.046883,72.8200868
I.C.I.C.I Junction,19.065606,72.8614781
Reserve Bank of India,19.0576673,72.8532337
ICICI/BKC Police Station Bus Stop,19.064987,72.861522
Diamond Market BKC,19.0666809,72.864856
Bharat Nagar,19.0617294,72.8594941
Income Tax Office,19.0589931,72.8547228
HP Officers Apartments,19.0661365,72.8578584
U.T.I Regional Education Centre,19.065943,72.8605843
Laxmi Tower,19.0634617,72.8643578
Tata Colony,19.0602846,72.8578319
MMRDA/Family Court,19.0560324,72.851465
Bharat Diamond Bourse,19.0640299,72.8655989
ICICI/BKC Police Station Bus Stop,19.064546,72.8613602
Mulund Court,19.1746086,72.9581103
Palm Acres Society,19.1729922,72.961493
Veena Nagar,19.1817165,72.9467249
Kheera Nagar,19.0869174,72.8380555
Subhash Nagar Nahur,19.1593435,72.9439918
Fortis Hospital,19.1622902,72.9423389
Annabhau Sathe Chowk,19.2008657,72.9490846
Namdev Wadi,19.1982186,72.9664949
Teen Hath Naka,19.1877203,72.9630069
Muktai Nagar,19.2109467,72.9771137
Flower Valley,19.2077273,72.9724033
Johnson Company,19.1867937,72.9614567
Kashish Park,19.1856977,72.9580383
Louis Wadi,19.1958212,72.9626241
Ralli Wolf,19.1709625,72.9405268
Duncan Company,19.16826,72.9393499
Hoechst Company,19.1658999,72.9383929
Bhandup Station (W),19.1460869,72.9360585
Asian Paints,19.1591964,72.9374411
Dr Hegdewar Chowk,19.1613591,72.9374966
Hoechst Company,19.1659793,72.9381735
R-Mall,19.2298989,72.9765478
Thakur Cinema Bus Stop,19.2096549,72.8729179
Dr Shyama Prasad Mukherjee Chowk,18.9244583,72.8321616
Jambhul Pada,19.0940331,72.898916
Nehru Nagar Bldg No 24,19.0612876,72.8800629
Nehru Nagar Municipal School,19.0608092,72.8814451
Khalsa College/Don Bosco School,19.0243843,72.8570683
Khodadad Circle,19.0190729,72.8489133
Khodadad Circle,19.0185815,72.8480762
Khodadad Circle,19.0170111,72.846933
Dadar Station (E),19.0179878,72.8444275
Dadar Station(E),19.0180011,72.8443808
Sainath Nagar,19.2668088,72.9666157
Mulund Railway Station (W),19.1736196,72.9561495
Shahu Market,19.1886435,72.9676777
Shahu Market,19.1886561,72.9675919
Goregaon Station(W),19.1649866,72.8510554
Goregaon Station,19.1647723,72.8508992
Jaslok Hospital,18.973443,72.8091464
Sujata Medicare (Sujata Gyanaecology Clinic);Dhake Colony,19.127861,72.8333795
Police Line,19.2011823,72.97958
Mhada,19.1337876,72.8257782
BSES,19.1347077,72.8251599
BSES,19.1345161,72.8252423
Picnic Cottage,19.1304492,72.8141686
Picnic Cottage,19.1308594,72.8139706
Juhu Hotel,19.1052897,72.827051
Juhu Bus Station,19.1065977,72.8269614
Juhu Bus Station,19.1067534,72.8268404
Juhu Bus Station,19.1076096,72.8267357
New DN Nagar,19.1181438,72.8299893
Municipal School,19.2285246,72.9673195
Vasant Vihar,19.2223782,72.9699761
Vasant Vihar,19.2224245,72.9698126
Holy Family Bus Stop,19.0547078,72.8274306
charkop sec 5,19.2154864,72.8256559
"Brahmand Phase 1,2",19.2410728,72.9814931
Dhokali Naka,19.2269387,72.9804003
Yashaswi Nagar,19.2182725,72.983627
Yashaswi Nagar,19.2184994,72.9833619
Shruti Park,19.2255516,72.9809407
Gawand Baug,19.221345,72.9591604
Subhash Nagar,19.2162719,72.973879
Tattvagyan Vidyapeeth,19.2231951,72.9776609
IIT Market Bus Stop,19.1274256,72.9190682
Upvan lake Voltas,19.223151,72.9575498
TISS Bus Stop,19.0454423,72.9136469
"Air Force Base, Kanherl Hills",19.2244979,72.9496019
Khewra Circle,19.2326406,72.9697918
Maharashtra Nagar (Thane),19.2298911,72.9699642
Maharashtra Nagar (Thane),19.2296295,72.9702345
Pawar Nagar,19.2289711,72.9663798
Kokanipada,19.2335744,72.9655135
R-Mall,19.2299191,72.9768643
Panchavati Society,19.22147,72.9663428
Pawar Nagar,19.2290045,72.9659517
Ravi Estate,19.2180914,72.9592962
Hiranandani Meadows,19.2283755,72.9695298
Anunagar,19.2582184,72.9750267
Voltas Gate,19.2170115,72.9716527
Goodluck Company,19.263692,72.9774463
Waghbil Village,19.266426,72.9833663
Parkwoods Society,19.2594625,72.9658455
Hawre City / Boriwade Gaon,19.2597233,72.9574142
Tikujini Wadi,19.2369887,72.9661562
Hill Garden,19.2347548,72.9661727
Garden Estate,19.2332977,72.967069
Happy Valley Circle,19.2366088,72.9705892
Central Maidan,19.1979375,72.9799998
Ambika Yoga Kutir,19.207231,72.9775348
Muktai Nagar,19.2107871,72.9772747
Ashapura Mandir,19.2160301,72.9782912
Kapurbawadi,19.2213538,72.9778567
Sahyog Society,19.2364834,72.9724064
Thane Station (W),19.1868728,72.9757359
Talao Pali,19.1941706,72.9767776
Tembhi Naka,19.197023,72.9772156
Municipal School,19.2018735,72.9778187
Uthalsar Naka,19.2029803,72.9780533
Ambika Yoga Kutir,19.207079,72.9773363
Kapurbawadi,19.2215919,72.9775482
Tattvagyan Vidyapeeth,19.2234205,72.9773229
Happy Valley Circle,19.2364302,72.9706295
Hiranandani Meadows,19.2278728,72.969912
Vivekananda Nagar,19.2229117,72.9699639
Gandhi Nagar,19.2182981,72.9702017
Voltas Gate,19.2172065,72.9716393
Lok Puram,19.2259388,72.9699933
Gandhi Nagar,19.2181841,72.9701333
Hyde Park,19.2265645,72.9739749
Tulsidham,19.2224567,72.9733641
Mulla Bagh,19.2395539,72.9758009
Azad Nagar Naka,19.2407634,72.9755418
Azad Nagar Naka,19.2405906,72.9758245
Vijay Garden / D-Mart,19.2596763,72.9698546
Vijay Garden / D-Mart,19.257824,72.96875
Panchamrit,19.2572565,72.9708344
Panchamrit,19.2571551,72.9704768
Waghbil Naka,19.2530084,72.9724863
Dongaripada,19.2508833,72.9734795
Brahmand Phase 5,19.245096,72.9837602
Swastik Park,19.2435437,72.9828134
St Xaviers High School,19.2407064,72.9773252
Mulla Bagh,19.239234,72.9755173
Police Line,19.2010848,72.9793815
Ice Factory,19.1871668,72.9688638
A.K. Joshi Vidyalaya,19.1874899,72.9715719
Kapurbawadi,19.2178194,72.9799287
Kapurbawadi,19.217551,72.9799622
Shruti Park,19.225476,72.980716
Wellman Company,19.2296152,72.984361
Kavyadhara,19.2281815,72.9824149
Highland Park,19.2222763,72.9822533
Highland Park,19.222257,72.982464
Wellman Company,19.2295333,72.9844587
Bayer,19.2308664,72.9861179
Swastik Park,19.2435716,72.9829395
Hari Niwas,19.1911452,72.9679057
Nitin Company,19.1990444,72.9649124
Kamgar Hospital,19.203348,72.9555675
Wagle Bus Depot,19.2014508,72.9456165
Ravi Fisheries,19.1973905,72.9455545
Tata Motors,19.1975931,72.9491785
Tata Motors,19.1975976,72.9492566
Annabhau Sathe Chowk,19.2008276,72.9491711
Kamgar Hospital,19.2032985,72.9554787
Nitin Company,19.1989724,72.9648823
Mahapalika Bhavan,19.1971433,72.9674568
Hari Niwas,19.1918275,72.9686178
Hari Niwas,19.1904762,72.967734
Khopat,19.2028237,72.9721946
Pujani Estate,19.2040346,72.969761
Pujani Estate,19.2042958,72.9697031
Shivai Nagar,19.2156912,72.9562782
Khandelwal Estate,19.2176192,72.9540015
Khandelwal Estate,19.217526,72.9538423
Bhu Kendra,19.2186766,72.9528953
Bhu Kendra,19.2184595,72.9529773
Upvan,19.2204256,72.9536489
Upvan,19.2204811,72.9535846
Gawand Baug,19.2212968,72.959159
Siddhachal Society,19.2247033,72.9649432
Sambhaji Nagar,19.2005795,72.9643768
Forest Office,19.1889537,72.964625
Forest Office,19.1890153,72.9645623
Thane RTO,19.1921568,72.9628534
Thane RTO,19.1929326,72.9630067
Sambhaji Nagar,19.2003514,72.964765
Siddheshwar Lake,19.2025671,72.9670775
Cadbury Junction,19.2040236,72.968593
Cadbury Junction,19.2041164,72.9680924
Cadbury Company,19.2054667,72.9669667
Cadbury Company,19.2056385,72.9671101
Raymond / J.K. Gram,19.2080843,72.963905
Raymond / J.K. Gram,19.2073622,72.9651694
Vartak Nagar Naka,19.2106156,72.9616338
MRR Childrens Hospital / Building Number 3,19.2121109,72.9601367
MRR Childrens Hospital / Building Number 3,19.2122119,72.9603311
S.T. Juna Thamba,19.2134696,72.9590272
S.T. Juna Thamba,19.2138005,72.9591152
Lakshminarayan Residency,19.2194223,72.9597748
Bethany Hospital,19.2204129,72.9618442
Asian Cable,19.2198209,72.9636853
Asian Cable,19.2198672,72.9636984
Jidh School,19.2226943,72.9647912
Jidh School,19.222727,72.9647958
Siddhachal Society,19.2247013,72.9649916
Upvan lake Voltas,19.2232331,72.9575229
Kasarvadavali Naka,19.2695628,72.9656352
Anand Nagar,19.2647541,72.9678149
Anand Nagar,19.2644174,72.9675762
Vijay Nagari,19.2561503,72.9736027
Vijay Nagari,19.2562139,72.9738562
Anunagar,19.2581726,72.9745948
Gawand Baug (Upvan),19.2248836,72.9586875
New Shakti Mill / Ambedkar Road,19.200673,72.9755634
Parmarth Niketan,19.2340971,72.9459003
Parsik Shiv Mandir,19.2364543,72.9447481
Mastan Talav/Nagpada,18.9650832,72.8303453
J J Hospital,18.9626612,72.8318866
J J Hospital,18.9628289,72.8318956
J J Hospital,18.9632404,72.831903
J J Hospital,18.9633545,72.832204
J J Hospital,18.9629416,72.8321772
J J Hospital,18.9628007,72.8321683
J J Hospital,18.9626288,72.8321578
J J Hospital,18.9621334,72.8328008
Nagpada/Nagpada Police Station,18.9666687,72.8299191
Maharashtra College/Alexandra Cinema,18.9673359,72.8273764
Maharashtra College/Alexandra Cinema,18.9675019,72.8274566
A.H. Ansari Chowk / New Nagpada,18.9670639,72.8325718
A.H. Ansari Chowk / New Nagpada,18.96662,72.8328481
Byculla Station,18.976137,72.8320059
Byculla Station,18.9768853,72.8322151
Byculla Station,18.9761776,72.8333765
Byculla Station (East),18.9777806,72.8337654
New Nagpada,18.9687837,72.8331673
Christ Church School / Mirja Galib Marg,18.9697688,72.8300758
Christ Church School / Mirja Galib Marg,18.9697483,72.8297867
Cafe Paradise,18.9618408,72.8300164
Cafe Paradise,18.9617478,72.8308708
Do Tanki,18.9617755,72.8283906
Do Tanki,18.9616759,72.8281023
Akbar Peerbhoy College,18.9617755,72.8257159
Akbar Peerbhoy College,18.9616319,72.8256669
Play House,18.9617412,72.8224687
Play House,18.9619241,72.8214435
Novelty Cinema / Dr .Bhadkamkar Road,18.9620073,72.8186353
Novelty Cinema / Dr .Bhadkamkar Road,18.9618424,72.8189028
Petit Hall,18.9550234,72.7984966
Petit Hall,18.9547248,72.7984242
Darya Mahal,18.9532628,72.797512
Darya Mahal,18.9527204,72.7971018
Grant Road Railway Station,18.9619796,72.8159479
Grant Road Railway Station,18.9619224,72.8158029
Nana Chowk,18.962022,72.8142064
Nana Chowk,18.9619681,72.8140752
Nana Chowk,18.962164,72.8125218
Nana Chowk,18.9620987,72.8123371
August Kranti Maidan,18.9628235,72.8105525
August Kranti Maidan,18.9627712,72.8109322
Godrej Chowk,18.9639269,72.8085279
Godrej Chowk,18.9647431,72.8075596
Godrej Chowk,18.9640787,72.8068347
Parsi Dharmashala / Om Chambers,18.9646941,72.8053555
Parsi Dharmashala / Om Chambers,18.9645586,72.8051674
Mukesh Chowk,18.9643807,72.8040162
Mukesh Chowk,18.9635316,72.8030848
Petrol Pump / Maheshwari Mansion,18.9613532,72.8013944
Petrol Pump / Maheshwari Mansion,18.9610897,72.8014223
Priyadarshani Park / Shimla House,18.9569155,72.7995926
Priyadarshani Park / Shimla House,18.9565097,72.7994793
J. Mehta Marg,18.9506295,72.7958552
Dr. M. Iqbal Chowk / Chinch Bunder,18.9626029,72.835492
Dr. M. Iqbal Chowk / Chinch Bunder,18.9620901,72.8342613
Umarkhadi / Noorbaug,18.9624747,72.8365312
Umarkhadi / Noorbaug,18.9626395,72.8377469
Sandhurst Road Railway Station,18.9613596,72.8388528
Chinch Bunder,18.9591904,72.8385064
Maharana Pratap Chowk / Mazgaon Garden,18.9683664,72.8405986
Maharana Pratap Chowk (Mazgaon),18.9692003,72.8406189
Maharana Pratap Chowk (Mazgaon),18.9692846,72.8408086
Dockyard Road Bus Stop,18.9680447,72.8439713
Dockyard Road Railway Station,18.9680153,72.8442602
Mazgaon Dock (Mazgaon),18.9655503,72.8455184
Mazgaon Dock (Mazgaon),18.9656178,72.8453786
Nirman Bhavan,18.9635566,72.8465955
Nirman Bhavan,18.9637133,72.846546
Railway Crossing,18.9591417,72.8462537
Railway Crossing,18.9589103,72.8460522
Mallet Bunder / Tapasani Naka,18.9579267,72.8473081
Mallet Bunder / Tapasani Naka,18.9581514,72.8472577
J J Hospital,18.9619528,72.8325848
Pratap Society,19.129835,72.8229246
Four Bungalows,19.1296134,72.8248087
Four Bungalows,19.1293874,72.8249807
Pratap Society,19.1300183,72.8227876
Sundarvan,19.1378448,72.8258232
Regional Transport Office,19.1319517,72.8257706
Seven Bungalows Garden,19.1287083,72.8171122
Four Bungalows,19.1301538,72.8257766
Four Bungalows,19.1309848,72.8255675
Swami Samarth Nagar,19.1389436,72.8255079
Swami Samarth Nagar,19.1390675,72.8255135
Sundervan,19.1369908,72.8255686
Indian Oil Nagar,19.1284511,72.8291027
Four Bungalows,19.1278944,72.8253434
Four Bungalows,19.1291815,72.8265924
Jeevan Nagar,19.1316684,72.831587
Jeevan Nagar,19.1319245,72.833336
Jeevan Nagar,19.1320818,72.8330548
Machalimar,19.1322109,72.8126902
Juhu Ville Parle Bus Station,19.1159409,72.8312863
Prabhat Society,19.1181671,72.8290377
Jankidevi Public School,19.139777,72.820993
Jankidevi Public School,19.1398374,72.8208106
Sardar Vallabhbhai Patel Nagar,19.1414131,72.8195456
Mhada Colony,19.1381689,72.8222075
Mhada Colony,19.1382206,72.8222982
Sardar Vallabhbhai Patel Nagar,19.1413935,72.8194296
Juhu Beach,19.0971196,72.826858
Juhu Chowpaty Bus Station,19.0959763,72.8274551
Juhu Chowpaty Bus Station,19.0959996,72.8276419
Seven Bungalows Garden,19.1285378,72.8164703
Arogya Nidhi Enclave,19.1114993,72.8283658
Juhu Bus Station,19.1084206,72.82667
Mhadeshwa Mandir,19.1366609,72.8236737
Mhadeshwa Mandir,19.1365858,72.8236099
Indian Oil Nagar,19.1286518,72.8289301
Vesave/Yari Road Bus Station,19.139075,72.8085727
Vesave/Yari Road Bus Station,19.1390116,72.8084412
Vesave/Yari Road Bus Station,19.1390816,72.8084359
Vesave/Yari Road Bus Station,19.1391626,72.8084162
Vesave/Yari Road Bus Station,19.1391896,72.8085178
Vesave/Yari Road Bus Station,19.1393048,72.808574
Vesave/Yari Road Bus Station,19.1391109,72.8085384
Prabhadevi Station,19.007292,72.8352687
Akshay,19.0522555,72.8324317
Strand Cinema,18.9168777,72.8271836
Sassoon Dock,18.9149125,72.8238094
Sassoon Dock,18.9144076,72.8242278
Colaba Bus Station,18.9125692,72.8223395
Colaba Bus Station,18.9129067,72.8218326
Colaba Post Office,18.9111153,72.8208482
Afghan Church,18.9067788,72.8167686
Pilot Bunder,18.9039418,72.8155884
INS Ashwini Hospital,18.9007724,72.81436
Khodadad Circle,19.0170701,72.8474477
Khodadad Circle,19.0186753,72.8481933
Khodadad Circle,19.0181554,72.8471285
Chitra Cinema,19.0140778,72.8452295
Chitra Cinema,19.014476,72.8450847
Shindewadi,19.0115267,72.8434861
Hindmata Cinema,19.0091379,72.8419304
Hindmata Cinema,19.010099,72.8421396
Parel Workshop,19.0050727,72.8396398
Madkebuwa Chowk,19.0058487,72.8398624
Parel Workshop,19.0005231,72.8380439
Bharatmata Cinema,18.995144,72.8367752
Bharatmata Cinema,18.9958135,72.8365955
Sant Jagnade Chowk,18.9918622,72.8363031
Sant Jagnade Chowk,18.9927042,72.8362414
Shantaram Pujare Chok,18.988172,72.8359464
Shantaram Pujare Chok,18.9886919,72.8356782
Jaihind Cinema,18.9852045,72.835595
Jaihind Cinema,18.9853428,72.8353843
Jijamata Udyan,18.979102,72.834093
Jijamata Udyan,18.9794901,72.8339079
Byculla Station,18.976066,72.8335914
Byculla Station,18.9764566,72.8333688
Dr A.H. Ansari Chowk,18.9673607,72.8328565
Dr M. Iqbal Chowk,18.9621048,72.8318292
Johar Chowk Bus Stop,18.9584596,72.8320277
Johar Chowk,18.9585534,72.831687
Minara Masjid,18.95452,72.8330818
Minara Masjid,18.9547432,72.8327599
Zakaria Masjid,18.9527519,72.8342083
Zakaria Masjid,18.9530588,72.8337631
Chakala Market,18.9506057,72.8346857
Chakala Market,18.9507174,72.8344041
Mahatma Phule Market,18.9461637,72.8351283
Mahatma Phule Market,18.9464986,72.8337657
Mumbai C.S.M.T.,18.9396869,72.8349379
Mumbai C.S.M.T.,18.9407854,72.8346696
Khadi Bhandar,18.9366538,72.8339884
Khadi Bhandar,18.9366259,72.8338368
Hutatma Chowk,18.9334787,72.8318533
Hutatma Chowk,18.9316139,72.8313625
Sir Ali Yavar Jung Institute,19.0523219,72.8341252
Bandra Telephone Exchange,19.051223,72.8362582
Mahim Koliwada,19.0463816,72.8385776
Mahim Koliwada,19.0458942,72.8383615
Mahim,19.0392108,72.8417225
Sitaladevi Temple,19.0351571,72.8424383
Sitaladevi Temple,19.0357859,72.842204
Citylight Cinema,19.0300936,72.8418392
City Light Cinema,19.0303598,72.8417051
Ram Ganesh Gadkari Chowk,19.0246622,72.8408682
Ram Ganesh Gadkari Chowk,19.0257044,72.8406778
Kalanagar,19.0531775,72.8469019
Ranade Road Junction,19.0221866,72.8381431
Ranade Road,19.0230621,72.8386098
Prabhodhankar Thakre Chowk,19.0196465,72.8364801
Prabhodhankar Thakre Chowk,19.0199863,72.8364319
Our Lady Of Salvation School,19.0181478,72.835772
Our Lady Of Salvation School,19.0187209,72.8358042
Jakhadevi,19.013099,72.833696
Jakhadevi,19.0150749,72.8346901
Sant Rohidas Chowk,19.0108319,72.832261
Sant Rohidas Chowk,19.0100128,72.8310513
Sant Rohidas Chowk,19.0092013,72.8322101
Sant Rohidas Chowk,19.008902,72.8333339
Sant Rohidas Chowk,19.0095944,72.8335163
Dhanmill Naka,19.0068682,72.8321055
Dhanmill Naka,19.0073298,72.8319472
Deepak Cinema,19.005126,72.8313223
Deepak Cinema,19.0056002,72.8311238
Lower Parel Station,18.9976953,72.8313893
Lower Parel Station,18.9983674,72.8311264
Bavla Masjid,18.9946697,72.8315328
Bavla Masjid,18.9954876,72.8312753
NM Joshi Marg Police Station,18.9908096,72.8317152
NM Joshi Marg Police Station,18.9914602,72.8314148
Comrade Gulabrao Ganacharya Chowk,18.986252,72.8318372
Comrade Gulabrao Ganacharya Chowk,18.9869343,72.8316414
S Bridge,18.9793734,72.8321591
S Bridge,18.9799771,72.8319123
Byculla Station (W),18.9769157,72.8320384
Swami Dayanand Saraswati Chowk (Fort),18.9360894,72.8375074
Swami Dayanand Saraswati Chowk (Fort),18.9365739,72.8368422
R.B.I. (Fort),18.9326916,72.836226
R.B.I. (Fort),18.9330246,72.8363514
Santacruz Bus Depot,19.0903522,72.8384721
Santacruz Bus Depot,19.090661,72.8382531
Khira Road,19.0849705,72.8381565
Santa Cruz Station (W),19.0815004,72.8380573
Santa Cruz Station (W),19.0817057,72.8378186
St Teresa Convent School,19.0747601,72.837722
St Teresa Convent School,19.0754952,72.8375128
Khar Station (W),19.0673934,72.8374135
Khar Station (W),19.0680234,72.837148
Bandra Talkies,19.0589692,72.8369522
Bandra Talkies,19.0602672,72.8370273
Bandra Telephone Exchange,19.0513287,72.8363128
Mahim,19.0387601,72.8420967
Ram Ganesh Gadkari Chowk,19.0246799,72.8403345
Veer Kotwal Udyan,19.0207673,72.8416622
Veer Kotwal Udyan,19.0213252,72.8428826
Veer Kotwal Udyan,19.0221163,72.8424454
Agarkar Chowk,19.1177538,72.8478819
Vijay Nagar Society Andheri,19.1138594,72.8476435
Vijay Nagar,19.1144034,72.8473185
Shivaji Chowk Andheri,19.1112617,72.8503069
Chhattrapati Shivaji Maharaj Chowk,19.1115632,72.8496066
Garware Chowk,19.1097563,72.851986
Subhash Marg Parle,19.1068392,72.8518707
Hanuman Society,19.1051309,72.8520986
Matruchaya,19.103775,72.8519431
Parle Tilak School,19.1032858,72.8486815
Parleshwar Mandir,19.1028397,72.8466913
Vile Parle Station (E),19.1002241,72.8461146
Sathe College,19.0983916,72.846179
Gujarat Society,19.0970432,72.851066
Domestic Airport Junction,19.0951435,72.8527746
Domestic Airport Junction,19.0960459,72.8525144
Vile Parle Subway,19.0918346,72.8463829
Vile Parle Subway,19.0922122,72.8468281
Milan Subway,19.0903543,72.8440601
Milan Subway,19.0908283,72.8439689
New Agripada,19.0868893,72.8447655
New Agripada,19.0870021,72.8442653
Vakola Police Station,19.0798578,72.8471366
Vakola Police Station,19.0808844,72.8465384
Maratha Colony,19.0750073,72.8465437
Cardinal Gracias School,19.0682274,72.8469045
Cardinal Gracias School,19.0673148,72.8464311
Khedwadi,19.0607717,72.8468576
Khedwadi,19.0611976,72.8463426
Old Customs House,18.929703,72.8349026
Old Customs House,18.92998,72.8349137
Lion's Gate,18.9262605,72.8338623
Lion's Gate,18.9267933,72.8337577
Dhobi Ghat Colaba,18.9071086,72.8115383
Oshiwara Bridge,19.1526404,72.8446099
Ram Mandir Goregaon,19.1519664,72.8441754
Oshiwara Bridge,19.149104,72.8432715
Oshiwara Bridge,19.149572,72.8430864
Ajit Glass Factory,19.1457789,72.8430194
Ajit Glass Factory,19.1463034,72.842896
Jogeshwari Telephone Exchange,19.1409189,72.8434405
Andheri Station (W),19.1196807,72.8455541
Nanavati Hospital,19.1053249,72.8397492
Erla,19.1063516,72.8398228
Nanavati Hospital,19.1002773,72.8395808
Nanavati Hospital,19.095852,72.8396586
Old Khar,19.0637556,72.8374028
Robert Gomes Chowk,18.9806771,72.8364935
Sant Savta Market,18.9813112,72.8346509
Sant Savta Market,18.9815319,72.8344551
Savlya Tandel Chowk,18.9761649,72.8401896
St Mary High School,18.969953,72.835013
Dr A.H. Ansari Chowk,18.967457,72.8326178
Mandvi Post Office,18.956656,72.8327666
Indira Dock,18.9378729,72.8393903
Ballard Pier,18.9370306,72.8403774
Foreign Post Office,18.9355439,72.8403828
New Customs House,18.9340978,72.8393555
V.B. Phadke Chowk,18.9443143,72.8295439
V.B. Phadke Chowk,18.9431371,72.8288305
V.B. Phadke Chowk,18.9433071,72.8298953
V.B. Phadke Chowk,18.9439134,72.8285757
Ahilyabai Holkar Chowk,18.9359346,72.8304639
Mumbai Gymkhana,18.9349045,72.8310272
Ahilyabai Holkar Chowk,18.9331362,72.8300294
Ahilyabai Holkar Chowk,18.9327506,72.8303513
Ahilyabai Holkar Chowk,18.9326034,72.8297156
Churchgate,18.9323852,72.827543
Churchgate,18.9330397,72.8270286
K.C. College,18.928034,72.8280848
Mantralaya,18.9281254,72.8245912
Mantralaya,18.9282839,72.8239676
Yari Road Bus Station,19.1394593,72.8083974
Seven Bungalows,19.1326368,72.8124472
Machalimar,19.1327341,72.8122115
Seven Bungalows,19.1296907,72.822125
Seven Bungalows,19.1301088,72.8224495
Seven Bungalows,19.1300961,72.8217199
Four Bungalows,19.129384,72.8260007
Four Bungalows,19.1288899,72.8257459
Four Bungalows,19.1298706,72.8255743
Four Bungalows,19.1292776,72.8253785
Dhake Colony,19.1275113,72.8311157
Dhake Colony,19.1286846,72.8310701
Dhake Colony,19.1281474,72.831392
Dhake Colony,19.1280714,72.8305927
Andheri Sports Complex,19.1274759,72.8373653
Andheri Sports Complex,19.1270096,72.8375986
Andheri Sports Complex,19.1269944,72.8366947
Oshiwara Bridge,19.1516598,72.8443846
Jogeshwari Telephone Exchange,19.1410354,72.8432125
Jogeshwari Bus Station,19.1338541,72.8477427
Jogeshwari Bus Station,19.1342532,72.8476328
Andheri Station (W),19.1266472,72.8471419
Amboli Naka,19.1269868,72.846989
Andheri Station (W),19.1203903,72.8455916
Andheri Fire Brigade,19.1120423,72.8416112
Andheri Fire Brigade,19.1123565,72.8414503
Nanavati Hospital,19.1058,72.839857
Vile Parle,19.1018792,72.8393152
Nanavati Hospital,19.0960598,72.839444
Old Khar,19.0642094,72.8372017
Masina Hospital,18.9756398,72.8359517
Anjeer Wadi,18.9733304,72.8402111
Mazgaon Court,18.9688623,72.8379661
St Mary High School,18.9698338,72.8348118
Mandvi Post Office,18.9565266,72.8325266
New Customs House,18.9339379,72.8396103
Naik Nagar,19.0624703,72.8839472
Nehru Nagar,19.0622015,72.8831962
Naik Nagar,19.0580642,72.8852668
Maratha Vigyan Parishad,19.053464,72.8790911
Tata Colony Chunabhatti,19.052905,72.8740632
Chunabhatti,19.0520886,72.8674141
Central Labour Institute,19.0491984,72.8659442
Rani Laxmibai Chowk Sion,19.0417976,72.8636214
Rani Laxmibai Chowk Sion,19.0434583,72.8640237
Gandhi Market Matunga,19.0397413,72.8621328
Jain Society,19.0399442,72.8618538
Gandhi Market Matunga,19.0348858,72.8600112
Gandhi Market Matunga,19.0352459,72.8592226
Lokmanya Tilak Hospital,19.0356769,72.8599146
Gandhi Market Matunga,19.0325417,72.8590161
Gandhi Market Matunga,19.0328675,72.8587371
Maheshwari Udyan,19.0268364,72.8547299
Maheshwari Udyan,19.0260112,72.8547943
Maheshwari Udyan,19.0277075,72.8559074
Khodadad Circle,19.0241348,72.8529972
Kapole Niwas,19.0247991,72.8530267
Khodadad Circle,19.0208434,72.8503042
Ruia College,19.0212187,72.8501916
Vikjay Vallbh Chowk,18.9542739,72.8318077
Bhuleshwar,18.9526047,72.8298256
Swadeshi Market,18.9488426,72.8288546
Kalbadevi,18.9457299,72.8291979
Kalbadevi,18.9463438,72.8289512
Bus stop,19.1804055,72.9398068
Sahyog Society,19.2362909,72.9724199
Rabodi,19.2030676,72.9799616
Holy Cross School,19.2030714,72.9790188
Jambhali Naka,19.194663,72.9779821
Prabhat Cinema,19.1904174,72.9768931
Shashtri Nagar,19.2141246,72.9613277
Ice Factory,19.1872143,72.9688409
Teen Hath Naka,19.1890299,72.9637485
Income Tax Office,19.1880091,72.9646889
Income Tax Office,19.188004,72.965051
Malhar Cinema,19.187543,72.9670144
Ice Factory,19.1873352,72.9687846
A.K. Joshi Vidyalaya,19.1876164,72.9715366
Shivai Nagar,19.2158934,72.9563819
Majiwada Gaon,19.2139582,72.9815608
Sachin Society,19.2147181,72.9796243
Court Naka,19.197197,72.9782338
Teen Hath Naka,19.1880608,72.962603
Johnson Company,19.1870374,72.9612672
Raheja Gardens,19.1859481,72.9580003
Mulund Check Naka,19.1857455,72.9559779
Automatic Company,19.1876758,72.9554737
Kamgar Hospital,19.2042624,72.9542988
Lokmanya Nagar,19.2094548,72.9523086
Passport Office / M.I.D.C.,19.1911234,72.9552323
Automatic Company,19.1875593,72.9551196
Mulund Check Naka,19.1852368,72.9559432
Gurukul Society,19.1956653,72.9646522
Kajuwadi,19.1974815,72.9603888
Indira Nagar,19.2050983,72.9501843
Sawarkar Nagar,19.2064356,72.9505813
Mahapalika Bhavan,19.1975702,72.9681229
Vrindavan Society Thane,19.2083171,72.9827092
Vrindavan Society Thane,19.2082355,72.9827741
Vrindavan Society,19.2083438,72.9827688
Mazgaon Dock Bus Stop,18.9658234,72.8456793
Byculla Station,18.976218,72.8321841
Holy Family Hospital,19.054837,72.8278942
Malvani Village,19.1964305,72.8087598
P&T Colony,19.1712614,72.9436028
Nahur Depot,19.1706644,72.9440018
Ralli Wolf,19.1710598,72.9405687
P&T Colony,19.1712828,72.9434655
Ralli Wolf,19.1707075,72.9401593
Ralli Wolf,19.1708078,72.9402046
Nahur Depot,19.170726,72.9441114
Kavi Kokil Vidyapati Thakur Chowk,19.1656282,72.9437399
Kavi Kokil Vidyapati Thakur Chowk,19.1657222,72.9436406
Mulund Station (W),19.1728363,72.9565516
Dnyan Sarita College,19.1786494,72.9505199
Dhanvantri Hospital,19.1761248,72.9533471
Dhanvantari Hospital,19.1758624,72.9536317
Santoshi Mata Mandir,19.1834765,72.9493129
Kamagar Hospital / ESIS Mulund,19.1791034,72.9452284
Laxmi Nagar,19.2063901,72.9704236
Siddhivinayak Tower,19.2101411,72.9742555
Flower Valley,19.2080375,72.9722311
Bramhala Talav / Manorpada,19.2025732,72.9760104
Kolbad,19.2040642,72.9771629
Castle Mill Naka,19.2052025,72.9774525
Parkwood Society,19.2621677,72.9655518
Sambhaji Hotel,19.2604117,72.971465
Anand Nagar Depot,19.2649823,72.9698419
Damyanti Smruti,19.26483,72.979655
Swastik Regalia,19.26254,72.9770372
Hiranandani Garden,19.2573766,72.9781095
Stanford Society,19.2563649,72.97946
Shastri Nagar Naka,19.2127233,72.9602577
Ram Mandir,19.2351511,72.9451686
Exotica,19.231545,72.948033
Bhendi Pada,19.2381292,72.9439169
Kores Nakshtra,19.2093268,72.9612937
Runwal Plaza,19.208024,72.9582472
Aai Mata Mandir / Chowk,19.2071764,72.9569683
Ravi Fisheries / Road Number 27,19.1950872,72.9452606
Wagle Circle / Road No 22,19.1945232,72.9497363
Durdwani Kendra,19.1943374,72.95167
ITI Circle,19.1953687,72.9431335
Dnyansadhna College,19.1844867,72.9647382
Bhandup Pumping Centre,19.1555082,72.9572244
Vikhroli Police Station,19.1208657,72.9370905
Kannamwar Nagar,19.116474,72.9352717
Kanjur Marg Village,19.1302895,72.941616
Mithagar,19.1655148,72.9640157
Vikhroli Station Road,19.1085523,72.9318683
Godrej Soaps,19.0932736,72.9257544
Reserve Bank Of India (RBI) BKC,19.0579304,72.8530618
Mohammad Estate,19.0738154,72.8709304
Kapadia Nagar,19.0752596,72.8724512
Bharat Nagar,19.0617066,72.8590797
Sahakar Nagar,19.0652812,72.8943521
Diamond Market BKC,19.0671304,72.8647945
Family Court BKC,19.0560668,72.8510093
R.T.O. / Kamraj Nagar,19.0732283,72.9104689
Everest World Park,19.2316556,72.9830836
Bayer Main Gate,19.2311434,72.9860598
Manorama Nagar,19.23195,72.98026
Aban Park,19.22922,72.9801
Yashaswi Nagar Pipeline,19.2195219,72.9838257
Vardhman Garden,19.2191572,72.9844875
Chhabhaiya Park,19.2181053,72.981358
Lodha,19.2143289,72.9841489
Hardas Nagar,19.2129261,72.9770749
Lodha / Saket,19.2108063,72.9857093
Lodha Complex,19.2132228,72.98424
Borivali Station (East),19.2293737,72.8576719
Omkareshwar Mandir,19.2305531,72.8628498
Borivali National Park,19.2305823,72.8636162
Nency Colony,19.2376733,72.8637049
Ganesh Nagar,19.2472249,72.8650856
Ganesh Nagar / Gokul Anand Hotel Borivali East,19.244507,72.864763
Raval Pada / Ghartan Pada,19.251793,72.867952
Golden Chemicals / Thakur Mall,19.262133,72.8737912
Dahisar Check Naka,19.2578063,72.8718591
Samrat Hotel / Mahavishnu Mandir,19.2651561,72.8757789
Amar Palace,19.269292,72.879061
Atriya Society,19.2455202,72.9822133
Rutu Tower,19.247889,72.9788877
Rutu Estate / Municipal Commissioner House,19.2482004,72.9777827
Shree Maa Bal Niketan,19.249882,72.9793302
Forest Avenue / Arcadia,19.2544518,72.9817034
Hiranandani,19.2582839,72.9843482
Bhoomi Acres,19.2587367,72.9758908
Vasant Leela,19.2591488,72.9760306
Tulshetpada,19.1608115,72.9312614
Hanuman Nagar,19.1396481,72.9217462
Mulund Railway Station (W),19.1738936,72.9558482
Mulund Railway Station (W),19.1736701,72.9571335
Mulund Railway Station (W) Towards Mulund Colony,19.1734316,72.9563565
Mulund Railway Station (W),19.1738124,72.9559607
Sri Chhatrapati Shivaji Maharaj Chowk,19.1759558,72.9377717
Amar Nagar,19.16792,72.9319292
Powai Chowk,19.1727098,72.9358578
Mohammad Estate,19.0736576,72.8712083
Highway Darshan Society,19.187638,72.964021
Vikhroli Station Road,19.1084719,72.9324376
Mithagar,19.1654711,72.9646062
Vikhroli Police Station,19.1211454,72.93763
Kannamwar Nagar,19.1164674,72.9356821
Teen Hath Naka,19.187977,72.9634583
R.T.O. / Kamraj Nagar,19.0732933,72.9111535
Dnyansadhna College,19.1842687,72.9652716
Kanjur Marg Village,19.1299061,72.9418341
Godrej Soaps,19.0931358,72.9260689
Bhandup Pumping Centre,19.1537427,72.9566687
Ramabai Nagar,19.0775752,72.9157361
Mira Gaothan,19.2675807,72.8775482
Ghartan Pada,19.2519433,72.8675191
Nency Colony,19.2378933,72.8632628
Ganesh Nagar,19.2461129,72.8645209
Gokul Anand Hotel Borivali East,19.2441275,72.8642551
Mira Gaon,19.2695265,72.8786327
Mira Gaothan,19.2677141,72.8771731
Borivali Sukurwadi ST Bus Stop,19.2316687,72.8600965
Omkareshwar Mandir,19.2314542,72.8625147
Dahisar Toll Naka,19.2586676,72.8717045
Samrat Hotel / Mahavishnu Mandir,19.2652068,72.8753644
Golden Chemicals,19.2620744,72.8731274
R. T. O/ Central Jail,19.1990545,72.9813194
R. T. O/ Central Jail,19.198911,72.9812358
Central Maidan,19.1979805,72.9797798
Kolbad,19.2041227,72.9773085
New Shakti Mill / Ambedkar Road,19.200791,72.9754838
Siddhivinayak Tower,19.2097138,72.9745916
Bramhala Talav / Manorpada,19.2026016,72.9764517
Manorama Nagar,19.2327246,72.9808434
Aban Park,19.2298898,72.9801563
Thane Station (East) Kopri,19.1850771,72.9766295
Gaondevi Mandir Kopri,19.184523,72.9724094
Swami Vivekanand Chowk,19.1816116,72.9677715
Twelve Bunglows,19.1823295,72.9694662
Siddharth Nagar Shashkiya Niwas,19.1824244,72.9707458
Gaondevi Mandir Kopri,19.1846315,72.9723404
Twelve Bunglows,19.182495,72.9694378
Siddharth Nagar Shashkiya Niwas,19.1825546,72.970439
Swami Vivekanand Chowk,19.1817514,72.9676074
Malhar Cinema,19.187463,72.9669519
Gyan Sarita Sada,19.1787307,72.9506325
Santoshi Mata Temple,19.1834741,72.9502413
Ambaji Dham,19.1782995,72.9496648
Shiv Sena Shakha Mulund,19.1739001,72.954633
Pach Rasta Devidayal Road,19.1756063,72.9527031
Kamagar Hospital Mulund,19.1790772,72.9454822
Ravi Fisheries / Road Number 27,19.1952385,72.945341
Wagle Circle / Road No 22,19.1948833,72.9497145
Durdwani Kendra,19.1944553,72.9516942
ITI Circle,19.1955412,72.9431088
Indira Nagar,19.2052249,72.9499322
Aai Mata Mandir Chowk,19.2069548,72.9569503
Kores Nakshtra,19.2091745,72.9614444
Runwal Plaza,19.2078791,72.9585369
Chhabhaiya Park,19.2176501,72.98131
Lodha Gate,19.2116179,72.9843718
Majiwada Gaon,19.2139249,72.9816729
Lodha Gate,19.2115761,72.984792
Sachin Society,19.214505,72.9797748
Lodha,19.2143345,72.9844703
Lodha Complex,19.2132428,72.9845692
Vardhman Garden,19.2189146,72.985082
Azad Nagar,19.2394215,72.9806883
St. Xaviers School,19.2403693,72.9774659
Brahmand Phase 4,19.2414312,72.9819707
Brahmand Phase 6,19.2464781,72.9846916
Brahmand Phase 5,19.2449088,72.9835683
Atriya Society,19.24553,72.982524
Leonard,19.2506846,72.9800125
Shree Maa Bal Niketan,19.24968,72.9795093
Forest Avenue,19.2540682,72.9818295
Rutu Tower,19.2480821,72.9790461
Hiranandani Garden,19.2575023,72.9782186
Swastik Regalia,19.262335,72.977285
Stanford Row,19.2565462,72.9796214
Kasarvadavali / Sainik Shala,19.270863,72.9667733
गांधी नगर,19.1252025,72.92406
Asian Paints,19.1594657,72.9376892
Gandhi Nagar,19.1264375,72.9251611
Hoechst Company,19.1657943,72.9383539
Hoechst Company,19.1658421,72.9383575
Mahanagarpalika Udyan,19.1757668,72.9493073
Mulund Depot,19.1758162,72.9465714
Mulund Depot,19.1758162,72.9463287
Shivram Society,19.1756224,72.9441655
Shivram Society,19.1757298,72.9444606
Mulund Railway Station (W),19.1727925,72.9558465
Mulund Railway Station (W),19.172923,72.9566324
Mulund Railway Station (W),19.173004,72.9567061
Dr Hegdewar Chowk,19.163828,72.9391645
Ralli Wolf,19.1706793,72.9401808
Johnson & Johnson,19.1747944,72.9417903
Duncan Company,19.1682183,72.9391489
Johnson & Johnson,19.1747422,72.9417825
Duncan Company,19.1681698,72.9391418
RP Road,19.1742247,72.9570889
Mulund Railway Station (W),19.1737498,72.957208
Maharishi Arvind Chowk,19.1756305,72.9526834
RP Road,19.1740898,72.9572188
P&T Colony,19.1696937,72.946077
Vidyaben Gardi School,19.1714443,72.9477022
P&T Colony,19.1696398,72.9458787
Bhandup Village,19.1443574,72.9506356
Konark Regency,19.1627426,72.9419983
Fortis Hospital,19.1627885,72.9419796
Godrej Boyce,19.1013884,72.929061
Bhandup Village,19.1441688,72.9500624
Vikhroli Village,19.1041157,72.9305415
Dr Shyama Prasad Mukherjee Chowk,18.9257701,72.833396
Veer Hutatma Bhai Kotwal Udyan,19.020936,72.8420918
Babasaheb Worlikar Chowk,19.012687,72.8247703
Rakhangi Chowk,18.9903077,72.8232853
Prabhadevi,19.013183,72.8285565
Highway Apartments,19.0481053,72.8683474
Hoechst Company,19.1660094,72.9381925
Wadarpada,19.1675996,72.9511729
Kalidas Natyagruh,19.17294,72.9493525
Kalidas Natyagruh,19.1734836,72.949696
Ravi Kiran Nagrik Bank,19.1685233,72.9520886
Mehul Cinema,19.1659927,72.9493859
Parshawnath Nagar,19.1640613,72.9473958
Dr Hegdewar Chowk/Bhandup Sonapur,19.1636635,72.9386608
Merind Company,19.1613878,72.9445075
Gaondevi Bus Stop,19.1844328,72.9718186
IIT Main Gate,19.1246198,72.9159678
Maharana Pratap Chowk,19.184213,72.9544284
Poddar Hospital Siddharth Nagar,19.0007873,72.8162918
Juhu Beach,19.0958753,72.828165
Juhu Tara,19.0902467,72.8276638
Rameadi,19.140439,72.8587259
St. Mary's High School,19.1665574,72.9450221
St. Mary's High School,19.1664462,72.9450483
Chembur Fine Arts,19.0601854,72.8967533
Chembir Fine Arts,19.0601135,72.8966899
Dr Hegdewar Chowk,19.1616752,72.9377119
Dr Hegdewar Chowk,19.1616082,72.9377154
Siddhivinayak Mandir,19.0178478,72.8319815
Siddhivinayak Mandir,19.0178348,72.8319258
Saki Naka,19.1051624,72.887545
Malwani Akaswani,19.1963277,72.8097611
Bhabha Hospital,19.0574736,72.8338627
Bandra Police Station,19.0562206,72.8349676
Bandra Police Station,19.0555205,72.8357281
Elco Market,19.0556392,72.8330042
Bank of India,19.055227,72.8311915
Ahilyabai Hillary Chowk,18.9333291,72.8265757
Ahilyabai Hillary Chowk,18.9330668,72.8268371
Kisan Nagar,19.1896061,72.9498035
Balsara,19.1915414,72.9517615
Majiwada,19.2108935,72.9826444
Majiwada,19.2112836,72.9827088
Highland Park,19.1698799,72.93237
Wadala Truck Terminal,19.0345339,72.8741878
Bhandup Pumping Centre,19.1554672,72.9571926
Mulund Vasahat,19.1744263,72.9370559
Maratha Colony,19.0740032,72.8469774
Maratha Colony,19.0740021,72.8470279
Kamani,19.0851644,72.8871162
Kamani,19.0851555,72.8872249
Ravi Kiran Nagrik Bank,19.1689649,72.9523319
Mulund Vidya Mandir,19.1700798,72.9535851
Wadarpada,19.1679529,72.9513645
Mulund Vidya Mandir,19.1701808,72.9535444
Kumbharwada,19.0540047,72.8916923
Rani Lakshmi Chowk,19.0449369,72.8639539
Sitaladevi Temple,19.036111,72.8422647
LIC Colony,19.0661647,72.8298069
LIC Colony,19.0661664,72.8299627
Mount Mary Steps,19.048188,72.8249936
Parijat,19.050955,72.8302978
Akshay,19.0515266,72.8313768
National College,19.0640115,72.834808
Juhu Koliwada,19.0860932,72.8276098
Juhu Koliwada,19.0859241,72.8276105
Shitladevi Temple,19.0336589,72.8421398
Citylight Cinema,19.0297875,72.8415944
St. Peter's Church,19.0553099,72.830619
Citylight Cinema,19.0297068,72.8417593
Ram Ganesh Gadkari Chowk,19.024482,72.8378249
Navy Nagar Colaba,18.9075165,72.8089517
Royal Hotel Bus Stop,19.0920568,72.8281643
Chakala Cigarette Company,19.1065997,72.8595354
Chakala Cigarette Company,19.1067084,72.8597458
Ram Ganesh Gadkari Chowk,19.0257599,72.840938
S.K. Patil Park,18.9492464,72.821548
Pandit Paluskar Chowk,18.9551577,72.8162925
Dr. B.R. Ambedkar Road,19.0701677,72.8290966
Dr. B.R. Ambedkar Road,19.070073,72.8290745
Rizvi College,19.0687139,72.8229416
Utpal Sanghvi,19.1126761,72.8281216
Utpal Sanghvi,19.1127054,72.8283699
Elco Market,19.0556291,72.8323013
Deepak Cinema,19.0059699,72.8308431
Orkay,19.1214332,72.8705534
BST buses,18.9692788,72.8221481
Ambaji Dham,19.1781961,72.9497831
Meenatai Thakre Udyan,19.0994569,72.9175809
Ghatkopar Railway Station (East),19.0849439,72.9077867
Ghatkopar Railway Station (East),19.0847538,72.9074527
Ghatkopar Railway Station (East),19.0846625,72.9072958
Ghatkopar Railway Station (East),19.0845903,72.9071563
Ghatkopar Railway Station (East),19.0845092,72.9070142
Khar Telephone Exchange,19.0687894,72.8334142
Khar Telephone Exchange,19.0693157,72.8337918
Bandra Talao,19.0561051,72.8368814
Bandra Talao,19.0559936,72.8369718
residental,18.9694606,72.8244644
Manpada,19.2351476,72.9758714
Dharamvir Nagar,19.2360987,72.9747023
St. Andrew's Church,19.0546492,72.825898
Maheshwari Udyan,19.0269378,72.8560752
Johnson & Johnson,19.1752624,72.9423285
Mahim,19.0404874,72.841137
Mahim,19.0402201,72.8412529
Mahim,19.0401041,72.8412937
Kalanagar Bus Station,19.0533323,72.8472128
Balakanji Bari,19.0847914,72.8330011
SNDT College,19.0853427,72.8307608
Pali Mala,19.0620662,72.8294564
Maharishi Arvind Chowk,19.175543,72.9518993
Maharana Pratap Chowk,19.1843012,72.9537812
Veena Nagar,19.182043,72.9469148
Jain Mandir,19.1769003,72.9664984
Jain Mandir,19.176923,72.9663549
National College,19.0630759,72.8345407
Bandra Talkies,19.0622697,72.8355532
Gavan Pada,19.1730746,72.9616682
Kora Kendra,19.220046,72.8526005
Kora Kendra,19.2200787,72.8523963
Kora Kendra,19.2210799,72.8544453
Kora Kendra,19.222102,72.8534389
Kora Kendra,19.2216615,72.8530358
Borivali Jail,19.2244652,72.8542013
Borivali Jail,19.2240525,72.8542373
Dharamshi Hall,19.2260687,72.8548518
Dharamshi Hall,19.2264237,72.8551977
Shastri Nagar,19.2178467,72.851688
Shastri Nagar,19.2181441,72.8515695
Poisar,19.2141577,72.8511565
Poisar,19.2145292,72.8508257
Mulund Station (East),19.1717016,72.9581372
Neelam Nagar Building No.3&4,19.1745172,72.9628443
Chhatrapati Shivaji Terminus,18.9409746,72.8332157
Chhatrapati Shivaji Terminus,18.9411394,72.8329924
Strand Cinema,18.9167915,72.826985
Bandra Bus Station (W),19.0541719,72.8391858
Juhu Circle,19.1149445,72.8298035
Lilavati Hospital,19.0509959,72.8296561
Carmel Church,19.0509207,72.8275308
Hill Road Garden,19.0529554,72.8240232
Carmel Church,19.0508979,72.8274962
Tobacco Company,19.0497115,72.8264406
Dr. Cooper Hospital Bus Stop,19.1081378,72.8370136
Santosh Nagar Extension Bus Stop outbound,19.1673351,72.876621
Santosh Nagar Extension Bus Stop inbound,19.167192,72.8769851
Infinity IT park main gate,19.1762412,72.881176
"N.N.P plot 1,2",19.1725788,72.8812925
Santacruz Station,19.0833776,72.8380565
Santacruz Station,19.083185,72.8380542
Mahim,19.0396495,72.8417784
Khar Linking Road,19.071062,72.8339116
Khar Linking Road,19.0728674,72.8342106
Ram Krishna Mission,19.0744894,72.8342379
Ram Krishna Mission,19.0747703,72.8342505
Agarkar Chowk,19.1181917,72.847949
Metro Company,19.0737165,72.8698103
Kalina,19.0778321,72.8619049
somaiya collage bus stop,19.0749487,72.9031986
Khodadaar circle,19.0190278,72.8484644
Khodadad Circle,19.0188084,72.8487161
IC Colony,19.2482718,72.8480499
Cadbury Junction,19.2045233,72.9685702
Forest Office,19.1889354,72.9646435
Shahu Market,19.1886561,72.9675704
Ranade Road Junction,19.0222917,72.8379986
Laxmi Industrial Estate,19.1357014,72.8319136
Kheera Nagar,19.0869549,72.8380568
Kheera Nagar,19.0869924,72.8380609
Vrindavan Society,19.208340769731297,72.98279039677799
