{"version": 0.6, "generator": "Overpass API 0.7.62.10 2d4cfc48", "osm3s": {"timestamp_osm_base": "2026-02-20T19:40:16Z", "copyright": "The data included in this document is from www.openstreetmap.org. The data is made available under ODbL."}, "elements": [{"type": "node", "id": 246449135, "lat": 19.0458454, "lon": 72.9257478, "tags": {"bench": "no", "bin": "no", "bus": "yes", "highway": "bus_stop", "lit": "yes", "name": "Agarwadi Bus stop", "public_transport": "platform", "shelter": "no"}}, {"type": "node", "id": 246472067, "lat": 19.0421735, "lon": 72.9329888, "tags": {"bench": "yes", "bin": "yes", "bus": "yes", "highway": "bus_stop", "lit": "yes", "name": "BARC Gate 6", "public_transport": "platform", "shelter": "yes"}}, {"type": "node", "id": 317914119, "lat": 19.1943844, "lon": 72.9769617, "tags": {"bus": "yes", "highway": "bus_stop", "name": "Talao Pali", "network": "Thane Municipal Transport", "network:en": "Thane Municipal Transport", "network:hi": "\u0920\u093e\u0923\u0947 \u0928\u0917\u0930\u092a\u093e\u0932\u093f\u0915\u093e \u092a\u0930\u093f\u0935\u0939\u0928", "network:wikidata": "Q7710243", "operator": "Thane Muncipal Transport", "public_transport": "platform"}}, {"type": "node", "id": 340363221, "lat": 19.1870071, "lon": 72.9769974, "tags": {"bus": "yes", "highway": "bus_stop", "name": "Thane Station (W)", "network": "Thane Municipal Transport", "network:en": "Thane Municipal Transport", "network:hi": "\u0920\u093e\u0923\u0947 \u0928\u0917\u0930\u092a\u093e\u0932\u093f\u0915\u093e \u092a\u0930\u093f\u0935\u0939\u0928", "network:wikidata": "Q7710243", "operator": "Thane Muncipal Transport", "public_transport": "platform"}}, {"type": "node", "id": 414595018, "lat": 19.1998001, "lon": 72.9773091, "tags": {"bus": "yes", "highway": "bus_stop", "name": "Shishu Gyan Mandir", "network": "Thane Municipal Transport", "network:en": "Thane Municipal Transport", "network:hi": "\u0920\u093e\u0923\u0947 \u0928\u0917\u0930\u092a\u093e\u0932\u093f\u0915\u093e \u092a\u0930\u093f\u0935\u0939\u0928", "network:wikidata": "Q7710243", "operator": "Thane Muncipal Transport", "public_transport": "platform"}}, {"type": "node", "id": 414595059, "lat": 19.1944146, "lon": 72.9704975, "tags": {"bus": "yes", "highway": "bus_stop", "name": "Vandana Cinema", "network": "Thane Municipal Transport", "network:en": "Thane Municipal Transport", "network:hi": "\u0920\u093e\u0923\u0947 \u0928\u0917\u0930\u092a\u093e\u0932\u093f\u0915\u093e \u092a\u0930\u093f\u0935\u0939\u0928", "network:wikidata": "Q7710243", "operator": "Thane Muncipal Transport", "public_transport": "platform"}}, {"type": "node", "id": 414603281, "lat": 19.20168, "lon": 72.9588321, "tags": {"bus": "yes", "highway": "bus_stop", "name:en": "Vaitiwadi", "network": "Thane Muncipal Transport", "network:wikidata": "Q7710243", "operator": "Thane Muncipal Transport", "public_transport": "platform"}}, {"type": "node", "id": 414604709, "lat": 19.1947397, "lon": 72.9667376, "tags": {"bus": "yes", "highway": "bus_stop", "name": "Parmarth Niketan", "network": "Thane Municipal Transport", "network:en": "Thane Municipal Transport", "network:hi": "\u0920\u093e\u0923\u0947 \u0928\u0917\u0930\u092a\u093e\u0932\u093f\u0915\u093e \u092a\u0930\u093f\u0935\u0939\u0928", "network:wikidata": "Q7710243", "operator": "Thane Muncipal Transport", "public_transport": "platform"}}, {"type": "node", "id": 414727658, "lat": 19.2031833, "lon": 72.9787954, "tags": {"bus": "yes", "highway": "bus_stop", "name": "Holy Cross High School", "network": "Thane Municipal Transport", "network:en": "Thane Municipal Transport", "network:hi": "\u0920\u093e\u0923\u0947 \u0928\u0917\u0930\u092a\u093e\u0932\u093f\u0915\u093e \u092a\u0930\u093f\u0935\u0939\u0928", "network:wikidata": "Q7710243", "operator": "Thane Muncipal Transport", "public_transport": "platform"}}, {"type": "node", "id": 414729200, "lat": 19.214908, "lon": 72.9761951, "tags": {"bus": "yes", "highway": "bus_stop", "name": "Oswal Park", "network": "Thane Municipal Transport", "network:en": "Thane Municipal Transport", "network:hi": "\u0920\u093e\u0923\u0947 \u0928\u0917\u0930\u092a\u093e\u0932\u093f\u0915\u093e \u092a\u0930\u093f\u0935\u0939\u0928", "network:wikidata": "Q7710243", "operator": "Thane Muncipal Transport", "public_transport": "platform"}}, {"type": "node", "id": 414730041, "lat": 19.2327205, "lon": 72.9698867, "tags": {"bus": "yes", "highway": "bus_stop", "name": "Khewra Circle", "network": "Thane Muncipal Transport", "operator": "Thane Muncipal Transport", "public_transport": "platform"}}, {"type": "node", "id": 414730701, "lat": 19.2466893, "lon": 72.9756162, "tags": {"bus": "yes", "highway": "bus_stop", "name": "Patlipada", "public_transport": "platform"}}, {"type": "node", "id": 443526121, "lat": 19.2210702, "lon": 72.960688, "tags": {"bus": "yes", "highway": "bus_stop", "name": "Neelkanth Heights", "network": "Thane Muncipal Transport", "network:wikidata": "Q7710243", "operator": "Thane Muncipal Transport", "public_transport": "platform"}}, {"type": "node", "id": 458918694, "lat": 18.9501583, "lon": 72.7954921, "tags": {"bus": "yes", "highway": "bus_stop", "public_transport": "platform"}}, {"type": "node", "id": 469125309, "lat": 18.9580671, "lon": 72.8025026, "tags": {"highway": "bus_stop", "name": "Shimla", "route": "156"}}, {"type": "node", "id": 477673434, "lat": 18.960109, "lon": 72.8094026, "tags": {"highway": "bus_stop"}}, {"type": "node", "id": 496816492, "lat": 18.9150398, "lon": 72.8182483, "tags": {"bus": "yes", "highway": "bus_stop", "public_transport": "platform"}}, {"type": "node", "id": 605221328, "lat": 18.9423036, "lon": 72.8295885, "tags": {"alt_name": "Metro Cinema", "bus": "yes", "highway": "bus_stop", "name": "V.B. Phadke Chowk", "public_transport": "platform"}}, {"type": "node", "id": 626537216, "lat": 19.1542887, "lon": 72.8571264, "tags": {"bus": "yes", "highway": "bus_stop", "name": "Vanrai", "operator": "BEST", "public_transport": "platform", "shelter": "yes"}}, {"type": "node", "id": 984976768, "lat": 19.1662452, "lon": 72.8527827, "tags": {"bus": "yes", "highway": "bus_stop", "name": "Peru Baug", "public_transport": "platform"}}, {"type": "node", "id": 984976772, "lat": 19.1664594, "lon": 72.8564089, "tags": {"bus": "yes", "highway": "bus_stop", "name": "Goregaon Check Naka 1", "public_transport": "platform"}}, {"type": "node", "id": 984976774, "lat": 19.1654307, "lon": 72.8586933, "tags": {"highway": "bus_stop", "name": "Goregoan Check Naka : 1"}}, {"type": "node", "id": 1027917064, "lat": 19.2636426, "lon": 72.9777448, "tags": {"alt_name": "Gondhalewadi", "bus": "yes", "highway": "bus_stop", "name": "Goodluck Company", "network": "Thane Muncipal Transport", "operator": "Thane Municipal Transport", "public_transport": "platform"}}, {"type": "node", "id": 1058313607, "lat": 19.0455264, "lon": 72.9106774, "tags": {"bench": "yes", "bin": "yes", "highway": "bus_stop", "name": "Deonar Bus Depot Stop", "shelter": "yes"}}, {"type": "node", "id": 1058319040, "lat": 19.0458076, "lon": 72.9117996, "tags": {"bench": "yes", "bin": "yes", "highway": "bus_stop", "lit": "yes", "name": "Deonar Bus Depot", "shelter": "yes"}}, {"type": "node", "id": 1078664390, "lat": 19.1934946, "lon": 72.9672874, "tags": {"bus": "yes", "highway": "bus_stop", "name": "Pradeep Society", "network": "Thane Municipal Transport", "network:en": "Thane Municipal Transport", "network:hi": "\u0920\u093e\u0923\u0947 \u0928\u0917\u0930\u092a\u093e\u0932\u093f\u0915\u093e \u092a\u0930\u093f\u0935\u0939\u0928", "network:wikidata": "Q7710243", "operator": "Thane Muncipal Transport", "public_transport": "platform"}}, {"type": "node", "id": 1078664593, "lat": 19.1927169, "lon": 72.9683539, "tags": {"bus": "yes", "highway": "bus_stop", "name": "Aradhana Cinema", "network": "Thane Municipal Transport", "network:en": "Thane Municipal Transport", "network:hi": "\u0920\u093e\u0923\u0947 \u0928\u0917\u0930\u092a\u093e\u0932\u093f\u0915\u093e \u092a\u0930\u093f\u0935\u0939\u0928", "network:wikidata": "Q7710243", "operator": "Thane Muncipal Transport", "public_transport": "platform"}}, {"type": "node", "id": 1101397910, "lat": 19.1127889, "lon": 72.838226, "tags": {"bus": "yes", "highway": "bus_stop", "name": "Bus #339 , 256", "public_transport": "platform"}}, {"type": "node", "id": 1182363540, "lat": 19.2271616, "lon": 72.9802672, "tags": {"bus": "yes", "highway": "bus_stop", "name": "Dhokali Naka", "network": "Thane Muncipal Transport", "network:wikidata": "Q7710243", "operator": "Thane Muncipal Transport", "public_transport": "platform"}}, {"type": "node", "id": 1184122848, "lat": 19.1983533, "lon": 72.9717513, "tags": {"bus": "yes", "highway": "bus_stop", "name": "Makhamali Talaav", "network": "Thane Municipal Transport", "network:en": "Thane Municipal Transport", "network:hi": "\u0920\u093e\u0923\u0947 \u0928\u0917\u0930\u092a\u093e\u0932\u093f\u0915\u093e \u092a\u0930\u093f\u0935\u0939\u0928", "network:wikidata": "Q7710243", "operator": "Thane Muncipal Transport", "public_transport": "platform"}}, {"type": "node", "id": 1184122902, "lat": 19.2007343, "lon": 72.9733089, "tags": {"bus": "yes", "highway": "bus_stop", "name": "Khopat S.T. Terminus", "network": "Thane Municipal Transport", "network:en": "Thane Municipal Transport", "network:hi": "\u0920\u093e\u0923\u0947 \u0928\u0917\u0930\u092a\u093e\u0932\u093f\u0915\u093e \u092a\u0930\u093f\u0935\u0939\u0928", "network:wikidata": "Q7710243", "operator": "Thane Muncipal Transport", "public_transport": "platform"}}, {"type": "node", "id": 1184124335, "lat": 19.1888892, "lon": 72.9748275, "tags": {"bus": "yes", "highway": "bus_stop", "name": "Gaondevi", "network": "Thane Municipal Transport", "network:en": "Thane Municipal Transport", "network:hi": "\u0920\u093e\u0923\u0947 \u0928\u0917\u0930\u092a\u093e\u0932\u093f\u0915\u093e \u092a\u0930\u093f\u0935\u0939\u0928", "network:wikidata": "Q7710243", "operator": "Thane Muncipal Transport", "public_transport": "platform"}}, {"type": "node", "id": 1235720534, "lat": 19.2507342, "lon": 72.9732294, "tags": {"bus": "yes", "highway": "bus_stop", "name": "Dongaripada", "network": "Thane Muncipal Transport", "network:wikidata": "Q7710243", "operator": "Thane Muncipal Transport", "public_transport": "platform"}}, {"type": "node", "id": 1235720619, "lat": 19.252939, "lon": 72.9721617, "tags": {"bus": "yes", "highway": "bus_stop", "name": "Waghbil Naka", "network": "Thane Muncipal Transport", "network:wikidata": "Q7710243", "operator": "Thane Muncipal Transport", "public_transport": "platform"}}, {"type": "node", "id": 1235755695, "lat": 19.2412987, "lon": 72.9813729, "tags": {"bus": "yes", "highway": "bus_stop", "name": "Brahmand Phase 1,2", "network": "Thane Muncipal Transport", "network:wikidata": "Q7710243", "operator": "Thane Muncipal Transport", "public_transport": "platform", "ref": "2912,", "route_ref": "122,"}}, {"type": "node", "id": 1235755737, "lat": 19.2394741, "lon": 72.9804978, "tags": {"bus": "yes", "highway": "bus_stop", "name": "Azad Nagar", "network": "Thane Muncipal Transport", "network:wikidata": "Q7710243", "operator": "Thane Muncipal Transport", "public_transport": "platform"}}, {"type": "node", "id": 1235755846, "lat": 19.2475499, "lon": 72.9860185, "tags": {"bus": "yes", "highway": "bus_stop", "name": "Brahmand Nagar", "network": "Thane Muncipal Transport", "operator": "Thane Muncipal Transport", "public_transport": "platform"}}, {"type": "node", "id": 1345348620, "lat": 19.1269002, "lon": 72.8672794, "tags": {"bus": "yes", "highway": "bus_stop", "name": "Holy Spirit Hospital Stop", "public_transport": "platform"}}, {"type": "node", "id": 1366794875, "lat": 19.0511704, "lon": 72.9226495, "tags": {"highway": "bus_stop", "name": "shivagi nagar hospital"}}, {"type": "node", "id": 1396848873, "lat": 19.0434671, "lon": 72.9218509, "tags": {"bench": "no", "bus": "yes", "highway": "bus_stop", "public_transport": "platform", "shelter": "yes"}}, {"type": "node", "id": 1396849450, "lat": 19.0438865, "lon": 72.9215063, "tags": {"highway": "bus_stop", "shelter": "yes"}}, {"type": "node", "id": 1416491625, "lat": 19.2156554, "lon": 72.8286186, "tags": {"highway": "bus_stop", "local_ref": "Market", "name": "Charkop Market"}}, {"type": "node", "id": 1416493622, "lat": 19.2088598, "lon": 72.820816, "tags": {"highway": "bus_stop", "local_ref": "Gaon / Village", "name": "Charkop Gaon"}}, {"type": "node", "id": 1416531583, "lat": 19.1966762, "lon": 72.8274867, "tags": {"bus": "yes", "highway": "bus_stop", "local_ref": "Asmita Jyoti", "name": "Asmita Jyoti", "public_transport": "platform", "shelter": "yes"}}, {"type": "node", "id": 1495198407, "lat": 19.0676018, "lon": 72.9210453, "tags": {"building": "yes", "highway": "bus_stop", "name": "Plot no.1;jafri schoole", "operator": "BEST"}}, {"type": "node", "id": 1514451610, "lat": 19.0750577, "lon": 72.8262477, "tags": {"bus": "yes", "highway": "bus_stop", "name": "Dandpada Bus Stop", "operator": "BEST Mumbai", "public_transport": "platform", "ref": "56,51,220."}}, {"type": "node", "id": 1576580003, "lat": 19.1033544, "lon": 72.8484748, "tags": {"bus": "yes", "highway": "bus_stop", "name": "Parle Tilak", "public_transport": "platform"}}, {"type": "node", "id": 1576587727, "lat": 19.1030172, "lon": 72.845919, "tags": {"bus": "yes", "highway": "bus_stop", "name": "Parleshwar Mandir", "public_transport": "platform"}}, {"type": "node", "id": 1576588136, "lat": 19.1028906, "lon": 72.845699, "tags": {"bus": "yes", "highway": "bus_stop", "name": "Parleshwar Mandir", "public_transport": "platform"}}, {"type": "node", "id": 1576641974, "lat": 19.1032759, "lon": 72.8484399, "tags": {"bus": "yes", "highway": "bus_stop", "name": "Parle Tilak", "public_transport": "platform"}}, {"type": "node", "id": 1578048950, "lat": 19.103509, "lon": 72.8501914, "tags": {"bus": "yes", "highway": "bus_stop", "name": "Guru Prasad Soc.", "public_transport": "platform"}}, {"type": "node", "id": 1578057492, "lat": 19.1035446, "lon": 72.8498454, "tags": {"bus": "yes", "highway": "bus_stop", "name": "Guru Prasad Soc.", "public_transport": "platform"}}, {"type": "node", "id": 1579248522, "lat": 19.1036685, "lon": 72.8513743, "tags": {"bus": "yes", "highway": "bus_stop", "name": "Hanuman Road", "public_transport": "platform"}}, {"type": "node", "id": 1579248546, "lat": 19.103732, "lon": 72.8514467, "tags": {"bus": "yes", "highway": "bus_stop", "name": "Hanuman Road", "public_transport": "platform"}}, {"type": "node", "id": 1579322102, "lat": 19.1037524, "lon": 72.8528682, "tags": {"bus": "yes", "highway": "bus_stop", "name": "Hanuman Road", "public_transport": "platform"}}, {"type": "node", "id": 1579329389, "lat": 19.1036864, "lon": 72.8531418, "tags": {"bus": "yes", "highway": "bus_stop", "name": "Hanuman Road", "public_transport": "platform"}}, {"type": "node", "id": 1582079842, "lat": 19.2480867, "lon": 72.9779885, "tags": {"bus": "yes", "highway": "bus_stop", "name": "Rutu Estate / Municipal Commissioner House", "network": "Thane Muncipal Transport", "network:wikidata": "Q7710243", "operator": "Thane Muncipal Transport", "public_transport": "platform", "ref": "3905,", "route_ref": "126,"}}, {"type": "node", "id": 1597607870, "lat": 18.9366238, "lon": 72.833975, "tags": {"bus": "yes", "highway": "bus_stop", "name": "Khadi Bhandar", "public_transport": "platform", "ref": "01115"}}, {"type": "node", "id": 1640723543, "lat": 19.0997323, "lon": 72.8276303, "tags": {"bench": "yes", "bus": "yes", "highway": "bus_stop", "name": "Parsi Colony Juhu", "name:en": "Parsi Colony Juhu", "public_transport": "platform", "shelter": "yes"}}, {"type": "node", "id": 1641730250, "lat": 19.0747178, "lon": 72.8228706, "tags": {"bench": "yes", "bus": "yes", "highway": "bus_stop", "name": "Khardanda", "public_transport": "platform", "shelter": "yes", "tactile_paving": "no"}}, {"type": "node", "id": 1641769633, "lat": 19.0708221, "lon": 72.8229438, "tags": {"bus": "yes", "highway": "bus_stop", "name": "Sherli Gaon", "public_transport": "platform"}}, {"type": "node", "id": 1641769647, "lat": 19.0702925, "lon": 72.822447, "tags": {"bus": "yes", "highway": "bus_stop", "public_transport": "platform"}}, {"type": "node", "id": 1643351679, "lat": 19.0452697, "lon": 72.9257952, "tags": {"bench": "no", "bin": "no", "bus": "yes", "highway": "bus_stop", "lit": "yes", "name": "Agarwadi Bus stop", "public_transport": "platform", "shelter": "no"}}, {"type": "node", "id": 1643413992, "lat": 19.2286267, "lon": 72.96736, "tags": {"bus": "yes", "highway": "bus_stop", "name": "Municipal School", "network": "Thane Muncipal Transport", "operator": "Thane Muncipal Transport", "public_transport": "platform"}}, {"type": "node", "id": 1646222635, "lat": 19.0158884, "lon": 72.9077266, "tags": {"bus": "yes", "highway": "bus_stop", "name": "gadakary bus stop", "public_transport": "platform"}}, {"type": "node", "id": 1647049234, "lat": 19.1965215, "lon": 72.9772907, "tags": {"bus": "yes", "highway": "bus_stop", "name": "Civil Court", "network": "Thane Municipal Transport", "network:en": "Thane Municipal Transport", "network:hi": "\u0920\u093e\u0923\u0947 \u0928\u0917\u0930\u092a\u093e\u0932\u093f\u0915\u093e \u092a\u0930\u093f\u0935\u0939\u0928", "network:wikidata": "Q7710243", "operator": "Thane Muncipal Transport", "public_transport": "platform"}}, {"type": "node", "id": 1647049257, "lat": 19.1970281, "lon": 72.9785836, "tags": {"bus": "yes", "highway": "bus_stop", "name": "Court Naka", "network": "Thane Municipal Transport", "network:en": "Thane Municipal Transport", "network:hi": "\u0920\u093e\u0923\u0947 \u0928\u0917\u0930\u092a\u093e\u0932\u093f\u0915\u093e \u092a\u0930\u093f\u0935\u0939\u0928", "network:wikidata": "Q7710243", "operator": "Thane Muncipal Transport", "public_transport": "platform"}}, {"type": "node", "id": 1648356959, "lat": 19.0528494, "lon": 72.8712486, "tags": {"bus": "yes", "highway": "bus_stop", "public_transport": "platform"}}, {"type": "node", "id": 1651294887, "lat": 19.0467441, "lon": 72.9077411, "tags": {"highway": "bus_stop", "name": "bus"}}, {"type": "node", "id": 1665625633, "lat": 19.1545592, "lon": 72.947053, "tags": {"highway": "bus_stop", "name": "Nahur Railway Station"}}, {"type": "node", "id": 1665625974, "lat": 19.1990126, "lon": 72.977455, "tags": {"bus": "yes", "highway": "bus_stop", "name": "Civil Hospital", "network": "Thane Municipal Transport", "network:en": "Thane Municipal Transport", "network:hi": "\u0920\u093e\u0923\u0947 \u0928\u0917\u0930\u092a\u093e\u0932\u093f\u0915\u093e \u092a\u0930\u093f\u0935\u0939\u0928", "network:wikidata": "Q7710243", "operator": "Thane Muncipal Transport", "public_transport": "platform"}}, {"type": "node", "id": 1833247047, "lat": 19.2304356, "lon": 72.8384919, "tags": {"highway": "bus_stop", "name": "MHB Colony"}}, {"type": "node", "id": 1843638495, "lat": 18.9261645, "lon": 72.8208868, "tags": {"bus": "yes", "highway": "bus_stop", "public_transport": "platform"}}, {"type": "node", "id": 1855291431, "lat": 19.2099716, "lon": 72.9617643, "tags": {"bus": "yes", "highway": "bus_stop", "name": "Vartak Nagar Naka", "network": "Thane Muncipal Transport", "network:wikidata": "Q7710243", "operator": "Thane Muncipal Transport", "public_transport": "platform"}}, {"type": "node", "id": 1855295815, "lat": 19.2147003, "lon": 72.9582095, "tags": {"bus": "yes", "highway": "bus_stop", "name": "Devdaya Nagar", "network": "Thane Muncipal Transport", "network:wikidata": "Q7710243", "operator": "Thane Muncipal Transport", "public_transport": "platform"}}, {"type": "node", "id": 1890095497, "lat": 19.228336, "lon": 72.848131, "tags": {"bus": "yes", "highway": "bus_stop", "name": "Babhai Naka", "public_transport": "platform"}}, {"type": "node", "id": 1890096536, "lat": 19.2289622, "lon": 72.8448146, "tags": {"bus": "yes", "highway": "bus_stop", "name": "Vazira Naka", "public_transport": "platform"}}, {"type": "node", "id": 1890098782, "lat": 19.22961, "lon": 72.842356, "tags": {"bus": "yes", "highway": "bus_stop", "name": "Don Bosco School", "public_transport": "platform"}}, {"type": "node", "id": 1891004225, "lat": 19.220945, "lon": 72.856423, "tags": {"bus": "yes", "highway": "bus_stop", "name": "Rajendra Nagar", "public_transport": "platform"}}, {"type": "node", "id": 1891549308, "lat": 19.120531, "lon": 72.855597, "tags": {"bench": "yes", "bus": "yes", "highway": "bus_stop", "name": "Gundavali", "public_transport": "platform", "shelter": "yes"}}, {"type": "node", "id": 1960733138, "lat": 19.1943543, "lon": 72.9706243, "tags": {"bus": "yes", "highway": "bus_stop", "name": "Vandana Cinema", "network": "Thane Municipal Transport", "network:en": "Thane Municipal Transport", "network:hi": "\u0920\u093e\u0923\u0947 \u0928\u0917\u0930\u092a\u093e\u0932\u093f\u0915\u093e \u092a\u0930\u093f\u0935\u0939\u0928", "network:wikidata": "Q7710243", "operator": "Thane Muncipal Transport", "public_transport": "platform"}}, {"type": "node", "id": 1960733402, "lat": 19.1962955, "lon": 72.9623222, "tags": {"bus": "yes", "highway": "bus_stop", "name": "Louis Wadi", "network": "Thane Muncipal Transport", "network:wikidata": "Q7710243", "operator": "Thane Muncipal Transport", "public_transport": "platform"}}, {"type": "node", "id": 1960733505, "lat": 19.1982746, "lon": 72.9718907, "tags": {"bus": "yes", "highway": "bus_stop", "name": "Makhamali Talaav", "network": "Thane Municipal Transport", "network:en": "Thane Municipal Transport", "network:hi": "\u0920\u093e\u0923\u0947 \u0928\u0917\u0930\u092a\u093e\u0932\u093f\u0915\u093e \u092a\u0930\u093f\u0935\u0939\u0928", "network:wikidata": "Q7710243", "operator": "Thane Muncipal Transport", "public_transport": "platform"}}, {"type": "node", "id": 1960733532, "lat": 19.1990546, "lon": 72.9635255, "tags": {"bus": "yes", "highway": "bus_stop", "name": "Nitin Junction", "network": "Thane Muncipal Transport", "operator": "Thane Muncipal Transport", "public_transport": "platform", "shelter": "yes"}}, {"type": "node", "id": 1960733585, "lat": 19.199131, "lon": 72.9631504, "tags": {"bus": "yes", "highway": "bus_stop", "name": "Nitin Company", "network": "Thane Muncipal Transport", "operator": "Thane Muncipal Transport", "public_transport": "platform", "shelter": "yes"}}, {"type": "node", "id": 1960733587, "lat": 19.1991279, "lon": 72.9783895, "tags": {"bus": "yes", "highway": "bus_stop", "name": "Civil Hospital", "network": "Thane Municipal Transport", "network:en": "Thane Municipal Transport", "network:hi": "\u0920\u093e\u0923\u0947 \u0928\u0917\u0930\u092a\u093e\u0932\u093f\u0915\u093e \u092a\u0930\u093f\u0935\u0939\u0928", "network:wikidata": "Q7710243", "operator": "Thane Muncipal Transport", "public_transport": "platform"}}, {"type": "node", "id": 1960733671, "lat": 19.2006759, "lon": 72.9733795, "tags": {"bus": "yes", "highway": "bus_stop", "name": "Khopat S.T. Terminus", "network": "Thane Municipal Transport", "network:en": "Thane Municipal Transport", "network:hi": "\u0920\u093e\u0923\u0947 \u0928\u0917\u0930\u092a\u093e\u0932\u093f\u0915\u093e \u092a\u0930\u093f\u0935\u0939\u0928", "network:wikidata": "Q7710243", "operator": "Thane Muncipal Transport", "public_transport": "platform"}}, {"type": "node", "id": 1960733860, "lat": 19.2034255, "lon": 72.9718687, "tags": {"bus": "yes", "highway": "bus_stop", "name": "Khopat", "network": "Thane Muncipal Transport", "network:wikidata": "Q7710243", "operator": "Thane Muncipal Transport", "public_transport": "platform"}}, {"type": "node", "id": 1960734049, "lat": 19.2048915, "lon": 72.9779517, "tags": {"bus": "yes", "highway": "bus_stop", "name": "Abhiruchi", "public_transport": "platform"}}, {"type": "node", "id": 1960734104, "lat": 19.2050729, "lon": 72.9780954, "tags": {"alt_name": "Desai Bungalow", "bus": "yes", "highway": "bus_stop", "name": "Ambe Ghosale Lake", "network": "Thane Municipal Transport", "network:en": "Thane Municipal Transport", "network:hi": "\u0920\u093e\u0923\u0947 \u0928\u0917\u0930\u092a\u093e\u0932\u093f\u0915\u093e \u092a\u0930\u093f\u0935\u0939\u0928", "network:wikidata": "Q7710243", "operator": "Thane Muncipal Transport", "public_transport": "platform"}}, {"type": "node", "id": 1960734126, "lat": 19.2059468, "lon": 72.9824728, "tags": {"bus": "yes", "highway": "bus_stop", "name": "Rabodi", "network": "Thane Municipal Transport", "network:hi": "\u0920\u093e\u0923\u0947 \u0928\u0917\u0930\u092a\u093e\u0932\u093f\u0915\u093e \u092a\u0930\u093f\u0935\u0939\u0928", "network:wikidata": "Q7710243", "operator": "Thane Muncipal Transport", "public_transport": "platform"}}, {"type": "node", "id": 1960734581, "lat": 19.2146243, "lon": 72.9774544, "tags": {"bench": "no", "bin": "no", "bus": "yes", "highway": "bus_stop", "lit": "no", "name": "Majiwada Naka", "network": "Thane Municipal Transport", "network:en": "Thane Municipal Transport", "network:hi": "\u0920\u093e\u0923\u0947 \u0928\u0917\u0930\u092a\u093e\u0932\u093f\u0915\u093e \u092a\u0930\u093f\u0935\u0939\u0928", "network:wikidata": "Q7710243", "operator": "Thane Muncipal Transport", "public_transport": "platform", "shelter": "no"}}, {"type": "node", "id": 1960734585, "lat": 19.2151588, "lon": 72.9781249, "tags": {"bus": "yes", "highway": "bus_stop", "name": "Majiwada Naka", "network": "Thane Municipal Transport", "network:en": "Thane Municipal Transport", "network:hi": "\u0920\u093e\u0923\u0947 \u0928\u0917\u0930\u092a\u093e\u0932\u093f\u0915\u093e \u092a\u0930\u093f\u0935\u0939\u0928", "network:wikidata": "Q7710243", "operator": "Thane Muncipal Transport", "public_transport": "platform"}}, {"type": "node", "id": 1960734604, "lat": 19.2149044, "lon": 72.9583943, "tags": {"bus": "yes", "highway": "bus_stop", "name": "Devdaya Nagar", "network": "Thane Muncipal Transport", "network:wikidata": "Q7710243", "operator": "Thane Muncipal Transport", "public_transport": "platform"}}, {"type": "node", "id": 1960734730, "lat": 19.2164315, "lon": 72.9740037, "tags": {"highway": "bus_stop", "name": "Subhash Nagar", "network": "Thane Muncipal Transport", "operator": "Thane Muncipal Transport", "public_transport": "platform"}}, {"type": "node", "id": 1960734932, "lat": 19.2203638, "lon": 72.9618162, "tags": {"bus": "yes", "highway": "bus_stop", "name": "Bethany Hospital", "network": "Thane Muncipal Transport", "network:wikidata": "Q7710243", "operator": "Thane Muncipal Transport", "public_transport": "stop_position"}}, {"type": "node", "id": 1960734936, "lat": 19.2204748, "lon": 72.97021, "tags": {"bus": "yes", "highway": "bus_stop", "name": "Jawahar Nagar", "network": "Thane Muncipal Transport", "operator": "Thane Muncipal Transport", "public_transport": "platform"}}, {"type": "node", "id": 1960734940, "lat": 19.2204093, "lon": 72.9704216, "tags": {"bus": "yes", "highway": "bus_stop", "name": "Jawahar Nagar", "network": "Thane Muncipal Transport", "operator": "Thane Muncipal Transport", "public_transport": "platform"}}, {"type": "node", "id": 1960735180, "lat": 19.2252703, "lon": 72.9497466, "tags": {"bus": "yes", "highway": "bus_stop", "name": "Yeoor Gaon", "network": "Thane Muncipal Transport", "operator": "Thane Muncipal Transport", "public_transport": "platform"}}, {"type": "node", "id": 1960735183, "lat": 19.2257553, "lon": 72.9701343, "tags": {"bus": "yes", "highway": "bus_stop", "name": "Lok Puram", "network": "Thane Muncipal Transport", "operator": "Thane Muncipal Transport", "public_transport": "platform"}}, {"type": "node", "id": 1960735560, "lat": 19.2464476, "lon": 72.9759993, "tags": {"bus": "yes", "highway": "bus_stop", "name": "Patli Pada", "network": "Thane Muncipal Transport", "network:wikidata": "Q7710243", "operator": "Thane Muncipal Transport", "public_transport": "platform", "ref": "14,364,1078,1643,1881,3088,3420,3514,", "route_ref": "51,53,54,60,61,63,65,69,"}}, {"type": "node", "id": 1984212605, "lat": 18.9074266, "lon": 72.8083029, "tags": {"bench": "yes", "bus": "yes", "highway": "bus_stop", "name": "Navy Nagar Colaba", "public_transport": "platform", "shelter": "yes"}}, {"type": "node", "id": 2071437455, "lat": 19.1349864, "lon": 72.8103871, "tags": {"bus": "yes", "highway": "bus_stop", "name": "BEST Bus Stop", "public_transport": "platform"}}, {"type": "node", "id": 2081722937, "lat": 19.1355677, "lon": 72.9055659, "tags": {"bus": "yes", "highway": "bus_stop", "name": "H12", "public_transport": "platform"}}, {"type": "node", "id": 2125165404, "lat": 19.1455779, "lon": 72.8289055, "tags": {"bus": "yes", "highway": "bus_stop", "name": "Highland Park Bus Stop", "public_transport": "platform"}}, {"type": "node", "id": 2125165405, "lat": 19.1453296, "lon": 72.8289055, "tags": {"bus": "yes", "highway": "bus_stop", "name": "Highland Park Bus Stop", "public_transport": "platform"}}, {"type": "node", "id": 2125201372, "lat": 19.1528727, "lon": 72.8283289, "tags": {"highway": "bus_stop"}}, {"type": "node", "id": 2128596704, "lat": 19.0751475, "lon": 72.8342923, "tags": {"bus": "yes", "highway": "bus_stop", "name": "Ramakrishna Mission Bus Stop", "public_transport": "platform"}}, {"type": "node", "id": 2128596706, "lat": 19.0792439, "lon": 72.8344425, "tags": {"bus": "yes", "highway": "bus_stop", "name": "Arya Samaj Mandir", "public_transport": "platform", "source": "field trip"}}, {"type": "node", "id": 2128596711, "lat": 19.0722176, "lon": 72.8341466, "tags": {"bench": "yes", "bin": "no", "bus": "yes", "highway": "bus_stop", "lit": "no", "name": "Linking Road Khar", "public_transport": "platform", "shelter": "yes"}}, {"type": "node", "id": 2128599353, "lat": 19.0610627, "lon": 72.8362964, "tags": {"bus": "yes", "highway": "bus_stop", "name": "Shoppers Stop", "public_transport": "platform"}}, {"type": "node", "id": 2128607195, "lat": 19.0412534, "lon": 72.8409951, "tags": {"bus": "yes", "highway": "bus_stop", "name": "Mahim Church", "operator": "BEST", "public_transport": "platform", "shelter": "yes"}}, {"type": "node", "id": 2128607198, "lat": 19.0398372, "lon": 72.8416791, "tags": {"bench": "yes", "bin": "no", "bus": "yes", "highway": "bus_stop", "name": "Mahim", "public_transport": "platform", "shelter": "yes"}}, {"type": "node", "id": 2130331465, "lat": 19.1372926, "lon": 72.8105645, "tags": {"bus": "yes", "highway": "bus_stop", "public_transport": "platform"}}, {"type": "node", "id": 2131087596, "lat": 19.1219328, "lon": 72.8257301, "tags": {"bus": "yes", "highway": "bus_stop", "name": "Juhu Versova Link Road", "public_transport": "platform", "shelter": "yes", "tactile_paving": "yes"}}, {"type": "node", "id": 2131087597, "lat": 19.1234006, "lon": 72.8244339, "tags": {"bench": "yes", "bus": "yes", "highway": "bus_stop", "name": "Juhu Versova Link Road", "public_transport": "platform", "shelter": "yes", "tactile_paving": "yes"}}, {"type": "node", "id": 2131087639, "lat": 19.1238299, "lon": 72.8240313, "tags": {"bench": "yes", "bus": "yes", "highway": "bus_stop", "public_transport": "platform", "shelter": "yes", "tactile_paving": "no"}}, {"type": "node", "id": 2131095060, "lat": 19.1185196, "lon": 72.8287523, "tags": {"bench": "yes", "bus": "yes", "highway": "bus_stop", "name": "New DN Nagar", "public_transport": "platform", "shelter": "yes", "tactile_paving": "yes"}}, {"type": "node", "id": 2131095070, "lat": 19.1209933, "lon": 72.8265373, "tags": {"bench": "yes", "bus": "yes", "highway": "bus_stop", "name": "Abhishek Society", "public_transport": "platform", "shelter": "yes", "tactile_paving": "yes"}}, {"type": "node", "id": 2131134159, "lat": 19.1155173, "lon": 72.8300035, "tags": {"bench": "yes", "bus": "yes", "highway": "bus_stop", "name": "Juhu Circle", "public_transport": "platform", "shelter": "yes", "tactile_paving": "yes"}}, {"type": "node", "id": 2146607971, "lat": 19.1417056, "lon": 72.7897647, "tags": {"bench": "no", "highway": "bus_stop", "name": "Madh Market", "shelter": "no"}}, {"type": "node", "id": 2148660907, "lat": 19.1323644, "lon": 72.8255906, "tags": {"bench": "yes", "bus": "yes", "highway": "bus_stop", "name": "Gyan Kendra School", "name:hi": "\u091c\u094d\u091e\u093e\u0928 \u0915\u0947\u0902\u0926\u094d\u0930 \u0938\u094d\u0915\u0942\u0932", "public_transport": "platform", "shelter": "yes"}}, {"type": "node", "id": 2148660916, "lat": 19.1339249, "lon": 72.8255967, "tags": {"alt_name": "Doordhwani Kendra", "alt_name:hi": "\u0926\u0942\u0930\u0927\u094d\u0935\u0928\u0940 \u0915\u0947\u0928\u094d\u0926\u094d\u0930", "bench": "yes", "bus": "yes", "highway": "bus_stop", "name": "Mhada", "name:hi": "\u092e\u094d\u0939\u093e\u0921\u093c\u093e", "public_transport": "platform", "shelter": "yes"}}, {"type": "node", "id": 2166719753, "lat": 18.937494, "lon": 72.834095, "tags": {"addr:housenumber": "01116", "addr:street": "Dr. Dadabhai Naoroji", "bus": "yes", "description": "9, 14, 81, 101, 124", "highway": "bus_stop", "name": "Khadi Bhandar \u0916\u093e\u0926\u0940 \u092d\u0902\u0921\u093e\u0930", "public_transport": "platform"}}, {"type": "node", "id": 2166729327, "lat": 18.937299, "lon": 72.834012, "tags": {"addr:housenumber": "01117", "bus": "yes", "description": "28, 68, 69, 74, 103, 126, 133, 138, FF1, SPL-3", "highway": "bus_stop", "name": "Khadi Bhandar", "public_transport": "platform"}}, {"type": "node", "id": 2166732234, "lat": 18.9361334, "lon": 72.8336366, "tags": {"addr:housenumber": "01119", "bus": "yes", "description": "1, 1LTD, 8LTD, 20LTD, 45, 51, 25LTD, 4 LTD, 22LTD, 19LTD, SPL-5", "highway": "bus_stop", "name": "Khadi Bhandar", "public_transport": "platform"}}, {"type": "node", "id": 2166748624, "lat": 18.933307, "lon": 72.831377, "tags": {"addr:housenumber": "16099", "bus": "yes", "description": "8LTD, 19LTD, 20LTD", "highway": "bus_stop", "name": "Hutatma Chowk", "public_transport": "platform"}}, {"type": "node", "id": 2166749272, "lat": 18.933794, "lon": 72.831275, "tags": {"addr:housenumber": "16100", "bus": "yes", "description": "10LTD", "highway": "bus_stop", "name": "Hutatma Chowk", "public_transport": "platform"}}, {"type": "node", "id": 2166750103, "lat": 18.934017, "lon": 72.831248, "tags": {"addr:housenumber": "16093", "bench": "yes", "bus": "yes", "description": "69, 126, 133", "highway": "bus_stop", "lit": "yes", "name": "Hutatma Chowk", "public_transport": "platform", "shelter": "yes"}}, {"type": "node", "id": 2166751180, "lat": 18.9344811, "lon": 72.8311697, "tags": {"bus": "yes", "description": "83, 86, AS-9, AS-4", "highway": "bus_stop", "name": "Hutatma Chowk", "public_transport": "platform", "ref": "16092"}}, {"type": "node", "id": 2171398748, "lat": 19.0620676, "lon": 72.8295332, "tags": {"bench": "yes", "bus": "yes", "highway": "bus_stop", "name": "Pali Mala", "name:en": "Pali Mala", "operator": "BEST", "public_transport": "platform", "shelter": "yes"}}, {"type": "node", "id": 2181459886, "lat": 19.1391763, "lon": 72.8239507, "tags": {"bus": "yes", "highway": "bus_stop", "public_transport": "platform"}}, {"type": "node", "id": 2224887211, "lat": 19.2291897, "lon": 72.9483531, "tags": {"bus": "yes", "highway": "bus_stop", "name": "Mavis", "network": "Thane Muncipal Transport", "operator": "Thane Muncipal Transport", "public_transport": "platform"}}, {"type": "node", "id": 2227589015, "lat": 19.2401909, "lon": 72.9432964, "tags": {"bus": "yes", "highway": "bus_stop", "name": "Yeoor", "network": "Thane Muncipal Transport", "operator": "Thane Muncipal Transport", "public_transport": "platform"}}, {"type": "node", "id": 2228292225, "lat": 19.2060304, "lon": 72.980791, "tags": {"bus": "yes", "highway": "bus_stop", "name": "Shreerang Society", "network": "Thane Municipal Transport", "network:en": "Thane Municipal Transport", "network:hi": "\u0920\u093e\u0923\u0947 \u0928\u0917\u0930\u092a\u093e\u0932\u093f\u0915\u093e \u092a\u0930\u093f\u0935\u0939\u0928", "network:wikidata": "Q7710243", "operator": "Thane Muncipal Transport", "public_transport": "platform"}}, {"type": "node", "id": 2228292530, "lat": 19.2085126, "lon": 72.9771727, "tags": {"bus": "yes", "highway": "bus_stop", "name": "Gokul Nagar", "network": "Thane Municipal Transport", "network:en": "Thane Municipal Transport", "network:hi": "\u0920\u093e\u0923\u0947 \u0928\u0917\u0930\u092a\u093e\u0932\u093f\u0915\u093e \u092a\u0930\u093f\u0935\u0939\u0928", "network:wikidata": "Q7710243", "operator": "Thane Muncipal Transport", "public_transport": "platform"}}, {"type": "node", "id": 2228293285, "lat": 19.2147383, "lon": 72.9760757, "tags": {"bus": "yes", "highway": "bus_stop", "name": "Oswal Park", "network": "Thane Municipal Transport", "network:en": "Thane Municipal Transport", "network:hi": "\u0920\u093e\u0923\u0947 \u0928\u0917\u0930\u092a\u093e\u0932\u093f\u0915\u093e \u092a\u0930\u093f\u0935\u0939\u0928", "network:wikidata": "Q7710243", "operator": "Thane Muncipal Transport", "public_transport": "platform"}}, {"type": "node", "id": 2228429124, "lat": 19.2000104, "lon": 72.9623884, "tags": {"bus": "yes", "highway": "bus_stop", "name:en": "Ramchandra Nagar 1", "network": "Thane Muncipal Transport", "operator": "Thane Muncipal Transport", "public_transport": "platform"}}, {"type": "node", "id": 2230881380, "lat": 19.1982967, "lon": 72.9665015, "tags": {"bus": "yes", "highway": "bus_stop", "name": "Namdev Wadi", "network": "Thane Muncipal Transport", "operator": "Thane Muncipal Transport", "public_transport": "platform"}}, {"type": "node", "id": 2285872311, "lat": 18.9889131, "lon": 72.8137151, "tags": {"bench": "yes", "bin": "no", "bus": "yes", "highway": "bus_stop", "name": "Nehru Tarangan", "note": "pole", "operator": "NMMT", "public_transport": "platform", "shelter": "yes"}}, {"type": "node", "id": 2285872332, "lat": 18.9882372, "lon": 72.8136659, "tags": {"bench": "yes", "bin": "no", "bus": "yes", "highway": "bus_stop", "name": "Nehru Planetarium", "name:en": "MS-533 (32)", "operator": "BEST", "public_transport": "platform", "ref": "7189", "shelter": "yes"}}, {"type": "node", "id": 2285872333, "lat": 18.9884103, "lon": 72.8139442, "tags": {"bus": "yes", "highway": "bus_stop", "name": "Nehru Planetarium", "operator": "BEST", "public_transport": "platform", "ref": "7187"}}, {"type": "node", "id": 2285872336, "lat": 18.9885926, "lon": 72.8136844, "tags": {"bench": "yes", "bin": "no", "bus": "yes", "highway": "bus_stop", "name": "Nehru Planetarium", "operator": "BEST", "public_transport": "platform", "ref": "7188", "shelter": "yes"}}, {"type": "node", "id": 2285872337, "lat": 18.9887189, "lon": 72.8139654, "tags": {"bus": "yes", "highway": "bus_stop", "name": "Nehru Planetarium", "operator": "BEST", "public_transport": "platform", "ref": "7186"}}, {"type": "node", "id": 2285872340, "lat": 18.9889645, "lon": 72.8137178, "tags": {"bench": "yes", "bin": "no", "bus": "yes", "highway": "bus_stop", "name": "Nehru Planetarium", "operator": "BEST", "public_transport": "platform", "ref": "7191", "shelter": "yes"}}, {"type": "node", "id": 2285872342, "lat": 18.9889924, "lon": 72.813984, "tags": {"bus": "yes", "highway": "bus_stop", "name": "Nehru Planetarium", "operator": "BEST", "public_transport": "platform", "ref": "7185"}}, {"type": "node", "id": 2285872343, "lat": 18.9892201, "lon": 72.8137307, "tags": {"bus": "yes", "highway": "bus_stop", "name": "Nehru Planetarium", "note": "pole", "operator": "BEST", "public_transport": "platform"}}, {"type": "node", "id": 2285872344, "lat": 18.9892703, "lon": 72.8137387, "tags": {"bus": "yes", "highway": "bus_stop", "name": "Nehru Planetarium", "operator": "BEST", "public_transport": "platform", "ref": "7192"}}, {"type": "node", "id": 2285872354, "lat": 18.9898692, "lon": 72.8137762, "tags": {"bus": "yes", "highway": "bus_stop", "name": "Nehru Planetarium", "operator": "BEST", "public_transport": "platform", "ref": "7194"}}, {"type": "node", "id": 2295901311, "lat": 18.9867462, "lon": 72.8143166, "tags": {"bench": "yes", "bin": "no", "bus": "yes", "highway": "bus_stop", "lit": "yes", "name": "Lotus Court", "operator": "BEST", "public_transport": "platform", "ref": "7200", "shelter": "yes"}}, {"type": "node", "id": 2295901312, "lat": 18.9868455, "lon": 72.8141724, "tags": {"bench": "yes", "bin": "no", "bus": "yes", "highway": "bus_stop", "lit": "yes", "name": "Lotus Court", "operator": "BEST", "public_transport": "platform", "ref": "7198", "shelter": "yes"}}, {"type": "node", "id": 2313106108, "lat": 19.1397456, "lon": 72.8982965, "tags": {"highway": "bus_stop", "name": "Vihar Lake", "operator": "BEST", "shelter": "yes"}}, {"type": "node", "id": 2313110689, "lat": 19.1349868, "lon": 72.8997985, "tags": {"highway": "bus_stop", "name": "NITIE", "note": "427, 186, 25 LTD", "operator": "BEST", "shelter": "no"}}, {"type": "node", "id": 2313134564, "lat": 19.1365991, "lon": 72.8993659, "tags": {"highway": "bus_stop", "name": "Ramada Hotel", "operator": "BEST", "shelter": "no"}}, {"type": "node", "id": 2317278914, "lat": 19.0693281, "lon": 72.9055478, "tags": {"bus": "yes", "check_date:shelter": "2023-07-15", "highway": "bus_stop", "name": "Jeejabhai Bhosale Junction", "operator": "BEST", "public_transport": "platform", "shelter": "no"}}, {"type": "node", "id": 2317279161, "lat": 19.0687175, "lon": 72.904372, "tags": {"bench": "no", "bin": "no", "bus": "yes", "highway": "bus_stop", "lit": "no", "name": "Chedda Nagar", "operator": "BEST", "public_transport": "platform", "ref": "3861,", "route_ref": "126,", "shelter": "no"}}, {"type": "node", "id": 2317279162, "lat": 19.0693463, "lon": 72.9047598, "tags": {"bench": "yes", "bin": "no", "bus": "yes", "highway": "bus_stop", "lit": "no", "name": "Chedda Nagar", "public_transport": "platform", "ref": "3861,", "route_ref": "126,", "shelter": "no"}}, {"type": "node", "id": 2319202487, "lat": 19.1256563, "lon": 72.8948183, "tags": {"bus": "yes", "highway": "bus_stop", "name": "Dr. Babasaheb Ambedkar Udyan/Powai Gardens", "operator": "BEST", "public_transport": "platform"}}, {"type": "node", "id": 2319202488, "lat": 19.1256107, "lon": 72.8945178, "tags": {"bus": "yes", "highway": "bus_stop", "name": "Dr. Babasaheb Ambedkar Udyan/Powai Gardens", "public_transport": "platform"}}, {"type": "node", "id": 2319202489, "lat": 19.1258083, "lon": 72.893563, "tags": {"bus": "yes", "highway": "bus_stop", "name": "Dr. Babasaheb Ambedkar Udyan/Powai Gardens", "public_transport": "platform"}}, {"type": "node", "id": 2319202490, "lat": 19.1271565, "lon": 72.8944052, "tags": {"bus": "yes", "highway": "bus_stop", "name": "Dr. Babasaheb Ambedkar Udyan/Powai Gardens", "operator": "BEST", "public_transport": "platform", "shelter": "yes"}}, {"type": "node", "id": 2353247893, "lat": 19.2157363, "lon": 72.8230081, "tags": {"highway": "bus_stop", "name": "Ganesh Mandir Bus Stop"}}, {"type": "node", "id": 2353247894, "lat": 19.2154906, "lon": 72.8253061, "tags": {"highway": "bus_stop", "name": "Sector 2 Bus Stop"}}, {"type": "node", "id": 2366784472, "lat": 19.1413516, "lon": 72.831696, "tags": {"bench": "yes", "bus": "yes", "highway": "bus_stop", "name": "Lokhandwala Link Road", "public_transport": "platform", "shelter": "yes"}}, {"type": "node", "id": 2396261920, "lat": 19.1162025, "lon": 72.8314705, "tags": {"bus": "yes", "highway": "bus_stop", "public_transport": "platform"}}, {"type": "node", "id": 2440235101, "lat": 19.1830083, "lon": 72.9536289, "tags": {"highway": "bus_stop", "name": "Mulund West Check Naka"}}, {"type": "node", "id": 2440266920, "lat": 19.1879291, "lon": 72.9797476, "tags": {"addr:street": "Chendani Bunder Road", "amenity": "bus_station", "bus": "yes", "highway": "bus_stop", "name:en": "Cidco Bus Depot (Thane)", "public_transport": "station"}}, {"type": "node", "id": 2440664579, "lat": 19.1446116, "lon": 72.8019073, "tags": {"highway": "bus_stop", "name": "Madh Jetty"}}, {"type": "node", "id": 2446139795, "lat": 19.0170595, "lon": 72.8474403, "tags": {"bench": "yes", "bin": "no", "bus": "yes", "check_date:bench": "2025-12-19", "covered": "yes", "highway": "bus_stop", "lit": "no", "name": "Khodadad Circle", "public_transport": "platform", "shelter": "yes"}}, {"type": "node", "id": 2446353347, "lat": 19.0186865, "lon": 72.8336046, "tags": {"bus": "yes", "highway": "bus_stop", "name": "Agar Bazaar", "public_transport": "platform"}}, {"type": "node", "id": 2446353349, "lat": 19.0153724, "lon": 72.8298764, "tags": {"bus": "yes", "highway": "bus_stop", "name": "Ravindra Natya Mandir", "public_transport": "platform"}}, {"type": "node", "id": 2449757353, "lat": 19.0481917, "lon": 72.8250874, "tags": {"bench": "no", "bin": "no", "bus": "yes", "highway": "bus_stop", "name": "Mount Mary Steps", "name:en": "Mount Mary Steps", "public_transport": "platform", "shelter": "no"}}, {"type": "node", "id": 2562641986, "lat": 19.1758267, "lon": 72.8655041, "tags": {"highway": "bus_stop", "local_ref": "Dindoshi Bus Depot", "name": "Dindoshi"}}, {"type": "node", "id": 2567633876, "lat": 19.0426822, "lon": 72.9287838, "tags": {"bench": "no", "bin": "no", "highway": "bus_stop", "lit": "yes", "name": "children's home", "shelter": "no"}}, {"type": "node", "id": 2567636054, "lat": 19.0428409, "lon": 72.9286705, "tags": {"bench": "no", "bin": "no", "highway": "bus_stop", "lit": "yes", "name": "children's home", "shelter": "no"}}, {"type": "node", "id": 2568778989, "lat": 19.0456589, "lon": 72.9298248, "tags": {"bench": "yes", "highway": "bus_stop", "shelter": "yes"}}, {"type": "node", "id": 2590306501, "lat": 19.125318, "lon": 72.822444, "tags": {"addr:city": "Mumbai", "addr:street": "Juhu Versova Link Road", "bus": "yes", "highway": "bus_stop", "name": "Bharat Nagar", "note": "buses 221, 328, 56", "public_transport": "platform", "shelter": "yes"}}, {"type": "node", "id": 2629418494, "lat": 19.063054, "lon": 72.8354736, "tags": {"bus": "yes", "highway": "bus_stop", "public_transport": "platform"}}, {"type": "node", "id": 2629682535, "lat": 18.9258816, "lon": 72.8331644, "tags": {"alt_name": "Museum", "bench": "yes", "bin": "no", "bus": "yes", "highway": "bus_stop", "lit": "yes", "name": "Dr Shyama Prasad Mukherjee Chowk", "public_transport": "platform", "shelter": "yes"}}, {"type": "node", "id": 2629682537, "lat": 18.9262672, "lon": 72.8316292, "tags": {"alt_name": "Museum", "bench": "yes", "bus": "yes", "highway": "bus_stop", "name": "Dr Shyama Prasad Mukherjee Chowk", "public_transport": "platform", "shelter": "yes"}}, {"type": "node", "id": 2629682538, "lat": 18.9263017, "lon": 72.8313888, "tags": {"alt_name": "Museum", "bench": "yes", "bus": "yes", "highway": "bus_stop", "name": "Dr Shyama Prasad Mukherjee Chowk", "public_transport": "platform", "shelter": "yes"}}, {"type": "node", "id": 2629682539, "lat": 18.9329613, "lon": 72.8287391, "tags": {"bus": "yes", "highway": "bus_stop", "name": "Churchgate", "public_transport": "platform"}}, {"type": "node", "id": 2629720846, "lat": 19.0456039, "lon": 72.9300015, "tags": {"bench": "yes", "highway": "bus_stop", "shelter": "yes"}}, {"type": "node", "id": 2646125663, "lat": 19.1005619, "lon": 72.8445644, "tags": {"bus": "yes", "highway": "bus_stop", "public_transport": "platform"}}, {"type": "node", "id": 2646125794, "lat": 19.1008705, "lon": 72.8446082, "tags": {"bus": "yes", "highway": "bus_stop", "name": "Bus 35 to Int. Airport", "public_transport": "platform"}}, {"type": "node", "id": 2718662788, "lat": 19.1253791, "lon": 72.8225834, "tags": {"bus": "yes", "highway": "bus_stop", "name": "Bharat Nagar", "public_transport": "platform", "shelter": "no"}}, {"type": "node", "id": 2718662822, "lat": 19.1265274, "lon": 72.8212852, "tags": {"bus": "yes", "highway": "bus_stop", "name": "Natasha Tower", "public_transport": "platform", "shelter": "yes"}}, {"type": "node", "id": 2718664886, "lat": 19.1034708, "lon": 72.8369397, "tags": {"bench": "yes", "bus": "yes", "highway": "bus_stop", "public_transport": "platform", "shelter": "yes"}}, {"type": "node", "id": 2718665548, "lat": 19.1034785, "lon": 72.8367182, "tags": {"bench": "yes", "bus": "yes", "highway": "bus_stop", "public_transport": "platform", "shelter": "yes"}}, {"type": "node", "id": 2726679970, "lat": 19.121425, "lon": 72.8706529, "tags": {"bus": "yes", "highway": "bus_stop", "name": "Orkay", "operator": "BEST", "public_transport": "platform", "shelter": "yes"}}, {"type": "node", "id": 2726679971, "lat": 19.1185973, "lon": 72.8701515, "tags": {"bus": "yes", "highway": "bus_stop", "name": "Gautam Nagar", "operator": "BEST", "public_transport": "platform", "shelter": "yes"}}, {"type": "node", "id": 2726683942, "lat": 19.1227917, "lon": 72.8712977, "tags": {"bus": "yes", "highway": "bus_stop", "name": "C Cross Road", "public_transport": "platform"}}, {"type": "node", "id": 2841960948, "lat": 19.0526477, "lon": 72.8241777, "tags": {"alt_name": "Mehboob Studio", "alt_name:en": "Mehboob Studio", "bench": "yes", "bin": "no", "bus": "yes", "highway": "bus_stop", "name": "Hill Road Garden", "name:en": "Hill Road Garden", "operator": "BEST", "public_transport": "platform", "shelter": "yes"}}, {"type": "node", "id": 2841960949, "lat": 19.0518136, "lon": 72.8241777, "tags": {"alt_name": "Mehboob Studio", "alt_name:en": "Mehboob Studio", "bench": "yes", "bin": "no", "bus": "yes", "highway": "bus_stop", "name": "Hill Road Garden", "name:en": "Hill Road Garden", "operator": "BEST", "public_transport": "platform", "shelter": "yes"}}, {"type": "node", "id": 2851477516, "lat": 19.0480965, "lon": 72.8258507, "tags": {"bench": "yes", "bin": "no", "bus": "yes", "highway": "bus_stop", "name": "St. Baptist House", "name:en": "St. Baptist House", "name:hi": "\u090f\u0938.\u091f\u0940 \u092c\u093e\u092a\u094d\u091f\u093f\u0938\u094d\u091f \u0939\u093e\u0909\u0938", "name:mr": "\u090f\u0938.\u091f\u0940 \u092c\u093e\u092a\u094d\u091f\u093f\u0938\u094d\u091f \u0939\u093e\u0909\u0938", "operator": "BEST", "public_transport": "platform", "shelter": "yes"}}, {"type": "node", "id": 2895364109, "lat": 19.0510806, "lon": 72.8751884, "tags": {"bus": "yes", "highway": "bus_stop", "name": "Everard Nagar", "operator": "BEST", "public_transport": "platform", "source": "502,504,353"}}, {"type": "node", "id": 2895364110, "lat": 19.0511591, "lon": 72.8754147, "tags": {"bus": "yes", "highway": "bus_stop", "name": "Everard Nagar", "operator": "BEST", "public_transport": "platform", "source": "402"}}, {"type": "node", "id": 2895365401, "lat": 19.0505635, "lon": 72.8749009, "tags": {"highway": "bus_stop", "name": "Everard Nagar", "operator": "BEST", "shelter": "yes"}}, {"type": "node", "id": 2898961177, "lat": 19.2277842, "lon": 72.9697028, "tags": {"bench": "yes", "bus": "yes", "highway": "bus_stop", "name": "Hiranandani Meadows", "network": "Thane Muncipal Transport", "operator": "Thane Muncipal Transport", "public_transport": "platform", "shelter": "yes"}}, {"type": "node", "id": 2902100495, "lat": 19.2628588, "lon": 72.9683276, "tags": {"bus": "yes", "highway": "bus_stop", "name": "Muchhala College", "network": "Thane Muncipal Transport", "operator": "Thane Muncipal Transport", "public_transport": "platform", "ref": "9,359,1073,1638,3083,3509,", "route_ref": "53,54,60,61,65,69,"}}, {"type": "node", "id": 2902101571, "lat": 19.2628978, "lon": 72.9684542, "tags": {"bus": "yes", "highway": "bus_stop", "name": "Muchhala College", "network": "Thane Muncipal Transport", "operator": "Thane Muncipal Transport", "public_transport": "platform", "ref": "9,359,1073,1638,3083,3509,", "route_ref": "53,54,60,61,65,69,"}}, {"type": "node", "id": 2920707181, "lat": 19.2294844, "lon": 72.8285292, "tags": {"highway": "bus_stop", "name": "Suvidya High School", "operator": "BEST", "shelter": "yes"}}, {"type": "node", "id": 2930719361, "lat": 19.0525399, "lon": 72.9334033, "tags": {"highway": "bus_stop"}}, {"type": "node", "id": 2949012476, "lat": 19.1417904, "lon": 72.8308178, "tags": {"bus": "yes", "highway": "bus_stop", "public_transport": "platform"}}, {"type": "node", "id": 2949012515, "lat": 19.1423401, "lon": 72.8313355, "tags": {"bus": "yes", "highway": "bus_stop", "public_transport": "platform"}}, {"type": "node", "id": 2949012516, "lat": 19.1398526, "lon": 72.82608, "tags": {"bench": "yes", "bus": "yes", "highway": "bus_stop", "public_transport": "platform", "shelter": "yes"}}, {"type": "node", "id": 2966429908, "lat": 19.0685222, "lon": 72.8677446, "tags": {"bench": "yes", "bus": "yes", "description": "Route Nos. - 62, 87, 181, 303, 39; BKC 1, 2, 10, 11, 12, 13, 22, 25", "highway": "bus_stop", "name": "Citi Bank BKC", "public_transport": "platform", "ref": "3861,"}}, {"type": "node", "id": 2966429909, "lat": 19.068917, "lon": 72.8677425, "tags": {"bus": "yes", "highway": "bus_stop", "name": "Citi Bank BKC", "public_transport": "platform", "ref": "3861,", "route_ref": "126,"}}, {"type": "node", "id": 2966429910, "lat": 19.070705, "lon": 72.8714701, "tags": {"bus": "yes", "highway": "bus_stop", "name": "MTNL Telephone Exchange BKC", "public_transport": "platform", "ref": "3941,", "route_ref": "126,"}}, {"type": "node", "id": 2966429911, "lat": 19.0711079, "lon": 72.8715467, "tags": {"bus": "yes", "highway": "bus_stop", "name": "MTNL Telephone Exchange BKC", "public_transport": "platform", "ref": "3941,", "route_ref": "126,"}}, {"type": "node", "id": 3125655773, "lat": 19.0284541, "lon": 72.8974533, "tags": {"bus": "yes", "highway": "bus_stop", "name": "Shankar Mandir Stop", "public_transport": "platform", "shelter": "no"}}, {"type": "node", "id": 3186367483, "lat": 19.1300324, "lon": 72.8257946, "tags": {"bench": "yes", "bus": "yes", "highway": "bus_stop", "name": "Four Bungalows", "name:hi": "\u091a\u093e\u0930 \u092c\u0902\u0917\u0932\u093e", "public_transport": "platform", "shelter": "yes"}}, {"type": "node", "id": 3195583578, "lat": 19.0846764, "lon": 72.8327654, "tags": {"bus": "yes", "highway": "bus_stop", "name": "Balakanji Bari", "name:en": "Balakanji Bari", "public_transport": "platform", "shelter": "yes"}}, {"type": "node", "id": 3204171920, "lat": 19.0615161, "lon": 72.8934087, "tags": {"bus": "yes", "highway": "bus_stop", "name": "Postal Colony", "public_transport": "platform"}}, {"type": "node", "id": 3204171921, "lat": 19.0612837, "lon": 72.893718, "tags": {"bus": "yes", "highway": "bus_stop", "name": "Postal Colony", "public_transport": "platform"}}, {"type": "node", "id": 3204217627, "lat": 19.064994, "lon": 72.9196089, "tags": {"highway": "bus_stop"}}, {"type": "node", "id": 3204252766, "lat": 19.0604104, "lon": 72.9256386, "tags": {"highway": "bus_stop", "name": "Shivaji Nagar Bus Terminus"}}, {"type": "node", "id": 3204472731, "lat": 19.0542102, "lon": 72.8934237, "tags": {"bus": "yes", "highway": "bus_stop", "name": "Chembur Naka", "public_transport": "platform"}}, {"type": "node", "id": 3204480436, "lat": 19.0541889, "lon": 72.8919114, "tags": {"bus": "yes", "highway": "bus_stop", "name": "Kumbharwada", "name:en": "Kumbharwada", "public_transport": "platform"}}, {"type": "node", "id": 3204485312, "lat": 19.0289047, "lon": 72.8972115, "tags": {"bus": "yes", "highway": "bus_stop", "name": "Shankar Deol", "public_transport": "platform"}}, {"type": "node", "id": 3204504352, "lat": 19.0384776, "lon": 72.9446669, "tags": {"highway": "bus_stop", "name": "cheeta camp"}}, {"type": "node", "id": 3204508759, "lat": 19.0342614, "lon": 72.9494324, "tags": {"bus": "yes", "highway": "bus_stop", "name": "trombay bus stop..", "public_transport": "platform"}}, {"type": "node", "id": 3204516948, "lat": 19.0938693, "lon": 72.9129053, "tags": {"bench": "yes", "bin": "no", "bus": "yes", "highway": "bus_stop", "name": "Shreyas Cinema", "public_transport": "platform", "shelter": "yes"}}, {"type": "node", "id": 3205771863, "lat": 19.0375439, "lon": 72.8660211, "tags": {"bus": "yes", "highway": "bus_stop", "name": "GTB Nagar bustop", "public_transport": "platform"}}, {"type": "node", "id": 3205774856, "lat": 19.0372203, "lon": 72.8614909, "tags": {"bus": "yes", "highway": "bus_stop", "name": "Lokmanya Tilak hospital", "public_transport": "platform"}}, {"type": "node", "id": 3205954461, "lat": 19.0638119, "lon": 72.9284627, "tags": {"highway": "bus_stop", "name": "Ninety Feet Jhangri Masjid"}}, {"type": "node", "id": 3205956667, "lat": 19.1551631, "lon": 72.9291525, "tags": {"highway": "bus_stop", "name": "Tembhipada Police Chowki", "shelter": "no"}}, {"type": "node", "id": 3205997409, "lat": 19.0534061, "lon": 72.9351532, "tags": {"highway": "bus_stop", "name": "Mohete Patil"}}, {"type": "node", "id": 3206033567, "lat": 19.0592485, "lon": 72.9138517, "tags": {"bus": "yes", "highway": "bus_stop", "name": "New Gautam Nagar Bus Stop", "public_transport": "platform"}}, {"type": "node", "id": 3206218502, "lat": 19.052385, "lon": 72.8797934, "tags": {"bus": "yes", "highway": "bus_stop", "name": "Priyadarshini Bus Stop", "operator": "BEST", "public_transport": "platform", "shelter": "yes"}}, {"type": "node", "id": 3206269274, "lat": 19.0526133, "lon": 72.8795023, "tags": {"bus": "yes", "highway": "bus_stop", "name": "Priyadarshini", "operator": "BEST", "public_transport": "platform", "ref": "26134", "shelter": "no"}}, {"type": "node", "id": 3207677587, "lat": 19.0617135, "lon": 72.8837422, "tags": {"bus": "yes", "highway": "bus_stop", "name": "Nehru Nagar- Kurla", "operator": "BEST", "public_transport": "platform", "shelter": "yes"}}, {"type": "node", "id": 3207678748, "lat": 19.0581845, "lon": 72.8828625, "tags": {"bus": "yes", "highway": "bus_stop", "name": "Kurla ST Depot", "operator": "BEST", "public_transport": "platform", "shelter": "yes"}}, {"type": "node", "id": 3207678780, "lat": 19.0566368, "lon": 72.8839847, "tags": {"bus": "yes", "highway": "bus_stop", "name": "Kurla S T Depot", "operator": "BEST", "public_transport": "platform"}}, {"type": "node", "id": 3207678781, "lat": 19.05534, "lon": 72.8827444, "tags": {"bus": "yes", "highway": "bus_stop", "name": "Shiv Shrusti", "operator": "BEST", "public_transport": "platform", "shelter": "yes"}}, {"type": "node", "id": 3207682357, "lat": 19.0538077, "lon": 72.8810985, "tags": {"bus": "yes", "highway": "bus_stop", "name": "Priyadarshini Chunabhatti", "operator": "BEST", "public_transport": "platform", "shelter": "yes"}}, {"type": "node", "id": 3207682361, "lat": 19.0551068, "lon": 72.8823689, "tags": {"bus": "yes", "highway": "bus_stop", "name": "Shiv Shrusti", "operator": "BEST", "public_transport": "platform", "shelter": "no"}}, {"type": "node", "id": 3207683449, "lat": 19.0530974, "lon": 72.8801854, "tags": {"bus": "yes", "highway": "bus_stop", "name": "Priyadarshini", "operator": "BEST", "public_transport": "platform", "shelter": "no"}}, {"type": "node", "id": 3207701503, "lat": 19.0577155, "lon": 72.8866524, "tags": {"bus": "yes", "highway": "bus_stop", "name": "S.G.Barve Marg Jun.(Thakkar Bappa)", "operator": "BEST", "public_transport": "platform", "shelter": "yes"}}, {"type": "node", "id": 3207718347, "lat": 19.0591834, "lon": 72.8855608, "tags": {"bus": "yes", "highway": "bus_stop", "name": "Kamgaar Nagar", "operator": "BEST", "public_transport": "platform", "shelter": "no"}}, {"type": "node", "id": 3207720197, "lat": 19.0577079, "lon": 72.8867168, "tags": {"bus": "yes", "highway": "bus_stop", "name": "S.G.Barve Marg Jun (Thakkar Bappa )", "public_transport": "platform"}}, {"type": "node", "id": 3207720278, "lat": 19.0604559, "lon": 72.8859707, "tags": {"bus": "yes", "highway": "bus_stop", "name": "Kamgaar Nagar", "operator": "BEST", "public_transport": "platform", "shelter": "no"}}, {"type": "node", "id": 3207720434, "lat": 19.0574236, "lon": 72.8878253, "tags": {"bus": "yes", "highway": "bus_stop", "name": "S.G.Barve Marg Jn.", "operator": "BEST", "public_transport": "platform", "shelter": "no"}}, {"type": "node", "id": 3207732982, "lat": 19.0571586, "lon": 72.8882584, "tags": {"bus": "yes", "highway": "bus_stop", "name": "S.G.Barve Marg Jn.", "operator": "BEST", "public_transport": "platform", "shelter": "no"}}, {"type": "node", "id": 3213880309, "lat": 19.0532391, "lon": 72.9272898, "tags": {"highway": "bus_stop", "name": "laalubai bus stop", "shelter": "yes"}}, {"type": "node", "id": 3214176979, "lat": 19.014855, "lon": 72.8524232, "tags": {"bus": "yes", "highway": "bus_stop", "name": "Wadala Depot", "operator": "BEST", "public_transport": "platform", "shelter": "yes"}}, {"type": "node", "id": 3214188918, "lat": 19.0146931, "lon": 72.8527142, "tags": {"bus": "yes", "highway": "bus_stop", "name": "Wadala Depot", "operator": "BEST", "public_transport": "platform", "shelter": "yes"}}, {"type": "node", "id": 3214194358, "lat": 19.0141752, "lon": 72.8462562, "tags": {"bus": "yes", "highway": "bus_stop", "name": "Sharada Cinema- Dadar", "operator": "BEST", "public_transport": "platform", "shelter": "yes"}}, {"type": "node", "id": 3215568899, "lat": 19.063265, "lon": 72.9293561, "tags": {"highway": "bus_stop"}}, {"type": "node", "id": 3215574543, "lat": 19.0555695, "lon": 72.9334422, "tags": {"highway": "bus_stop", "name": "Railway Vasahat", "operator": "Surbhi"}}, {"type": "node", "id": 3215578240, "lat": 19.0497076, "lon": 72.9269083, "tags": {"highway": "bus_stop", "name": "Bus stop", "note": "Please verify"}}, {"type": "node", "id": 3217150650, "lat": 19.0606584, "lon": 72.9121226, "tags": {"bus": "yes", "highway": "bus_stop", "name": "asisi nagar bus stop", "public_transport": "platform"}}, {"type": "node", "id": 3217427543, "lat": 19.0541665, "lon": 72.9234807, "tags": {"highway": "bus_stop", "name": "deonar colony bus stop"}}, {"type": "node", "id": 3217432498, "lat": 19.0557346, "lon": 72.922, "tags": {"highway": "bus_stop", "name": "colony bus stop"}}, {"type": "node", "id": 3218898828, "lat": 19.0610068, "lon": 72.909099, "tags": {"bus": "yes", "highway": "bus_stop", "name": "Narayana Guru", "public_transport": "platform"}}, {"type": "node", "id": 3224770453, "lat": 19.0675626, "lon": 72.920868, "tags": {"highway": "bus_stop", "name": "jafary bus stop"}}, {"type": "node", "id": 3229537290, "lat": 19.1728787, "lon": 72.961446, "tags": {"highway": "bus_stop", "name": "Gavan Pada", "shelter": "yes"}}, {"type": "node", "id": 3229537297, "lat": 19.1713923, "lon": 72.9582144, "tags": {"highway": "bus_stop", "name": "Mulund Station (East)", "shelter": "no"}}, {"type": "node", "id": 3243945329, "lat": 19.2426204, "lon": 72.8520198, "tags": {"bus": "yes", "highway": "bus_stop", "name": "L.I.C. Colony", "operator": "BEST", "shelter": "no"}}, {"type": "node", "id": 3243945339, "lat": 19.2401299, "lon": 72.8544811, "tags": {"addr:city": "mumbai", "bus": "yes", "highway": "bus_stop", "name": "Bhagwati Hospital", "operator": "BEST", "public_transport": "platform"}}, {"type": "node", "id": 3243945340, "lat": 19.2404837, "lon": 72.8546667, "tags": {"bus": "yes", "highway": "bus_stop", "name": "Bhagwati Hospital", "operator": "BEST", "public_transport": "platform"}}, {"type": "node", "id": 3263024864, "lat": 19.2059129, "lon": 72.9542957, "tags": {"bus": "yes", "highway": "bus_stop", "name": "Sawarkar Nagar", "network": "Thane Muncipal Transport", "operator": "Thane Muncipal Transport", "public_transport": "platform"}}, {"type": "node", "id": 3263030022, "lat": 19.2082381, "lon": 72.9547561, "tags": {"bus": "yes", "highway": "bus_stop", "name": "Yashodham Nagar", "network": "Thane Muncipal Transport", "operator": "Thane Muncipal Transport", "public_transport": "platform"}}, {"type": "node", "id": 3263043839, "lat": 19.1935175, "lon": 72.9535565, "tags": {"bus": "yes", "highway": "bus_stop", "name": "Road Number 16", "network": "Thane Muncipal Transport", "operator": "Thane Muncipal Transport", "public_transport": "platform"}}, {"type": "node", "id": 3263043840, "lat": 19.1937177, "lon": 72.953751, "tags": {"bus": "yes", "highway": "bus_stop", "name": "Road Number 16", "network": "Thane Muncipal Transport", "operator": "Thane Muncipal Transport", "public_transport": "platform"}}, {"type": "node", "id": 3276626955, "lat": 18.9404142, "lon": 72.8382775, "tags": {"bus": "yes", "highway": "bus_stop", "public_transport": "platform"}}, {"type": "node", "id": 3276626956, "lat": 18.9445366, "lon": 72.8301501, "tags": {"bus": "yes", "highway": "bus_stop", "public_transport": "platform"}}, {"type": "node", "id": 3278350500, "lat": 18.9455786, "lon": 72.8313847, "tags": {"bus": "yes", "highway": "bus_stop", "public_transport": "platform"}}, {"type": "node", "id": 3278351286, "lat": 18.9448178, "lon": 72.8300391, "tags": {"bus": "yes", "highway": "bus_stop", "public_transport": "platform"}}, {"type": "node", "id": 3278351287, "lat": 18.9453507, "lon": 72.8311202, "tags": {"bus": "yes", "highway": "bus_stop", "public_transport": "platform"}}, {"type": "node", "id": 3289526262, "lat": 19.0822198, "lon": 72.8820808, "tags": {"bus": "yes", "highway": "bus_stop", "name": "Sheetal Bus stop", "operator": "BEST", "public_transport": "platform", "shelter": "yes"}}, {"type": "node", "id": 3289565941, "lat": 19.075081, "lon": 72.8726577, "tags": {"bus": "yes", "highway": "bus_stop", "name": "Kapadia Nagar", "public_transport": "platform", "ref": "3939,", "route_ref": "126,", "shelter": "no"}}, {"type": "node", "id": 3306032211, "lat": 19.0969116, "lon": 72.851357, "tags": {"bus": "yes", "highway": "bus_stop", "name": "Gujarat Society", "operator": "BEST", "public_transport": "platform", "shelter": "yes"}}, {"type": "node", "id": 3306033038, "lat": 19.0968975, "lon": 72.8514137, "tags": {"bus": "yes", "highway": "bus_stop", "name": "Gujarat Society", "operator": "BEST", "public_transport": "platform", "shelter": "yes"}}, {"type": "node", "id": 3306035647, "lat": 19.0923948, "lon": 72.8476959, "tags": {"bus": "yes", "highway": "bus_stop", "name": "Domestic Airport", "operator": "BEST", "public_transport": "platform", "shelter": "yes"}}, {"type": "node", "id": 3313013693, "lat": 18.9411989, "lon": 72.8295989, "tags": {"bus": "yes", "highway": "bus_stop", "name": "Naik Bus Stop", "public_transport": "platform"}}, {"type": "node", "id": 3363337260, "lat": 19.1216167, "lon": 72.8299889, "tags": {"bench": "yes", "bus": "yes", "highway": "bus_stop", "public_transport": "platform", "shelter": "yes"}}, {"type": "node", "id": 3439107263, "lat": 19.0590268, "lon": 72.9243739, "tags": {"bench": "no", "bin": "no", "highway": "bus_stop", "lit": "no", "name": "Bainganwadi", "shelter": "no"}}, {"type": "node", "id": 3464561137, "lat": 19.0143712, "lon": 72.853185, "tags": {"bus": "yes", "highway": "bus_stop", "public_transport": "platform"}}, {"type": "node", "id": 3464562701, "lat": 19.0285848, "lon": 72.8374441, "tags": {"bus": "yes", "highway": "bus_stop", "name": "Mayors Bungalow", "operator": "BEST", "public_transport": "platform", "shelter": "yes"}}, {"type": "node", "id": 3467500468, "lat": 19.0535401, "lon": 72.8380674, "tags": {"alt_name": "P.Mohd Rafi Chok", "bench": "yes", "bus": "yes", "covered": "yes", "highway": "bus_stop", "name": "Bandra Station Road (W)", "operator": "BEST", "public_transport": "platform", "shelter": "yes"}}, {"type": "node", "id": 3467500590, "lat": 19.0514594, "lon": 72.8383231, "tags": {"bench": "yes", "bus": "yes", "covered": "yes", "highway": "bus_stop", "name": "P.Mohd Rafi Chowk", "operator": "BEST", "public_transport": "platform", "shelter": "yes"}}, {"type": "node", "id": 3467500693, "lat": 19.0545381, "lon": 72.8376574, "tags": {"alt_name": "P.Mohd Rafi Chowk", "bench": "yes", "bus": "yes", "covered": "yes", "highway": "bus_stop", "name": "Bandra Station Road (W)", "operator": "BEST", "public_transport": "platform", "shelter": "yes"}}, {"type": "node", "id": 3467501927, "lat": 19.0576069, "lon": 72.8367365, "tags": {"bench": "yes", "bus": "yes", "covered": "yes", "highway": "bus_stop", "name": "Bandra Talao", "operator": "BEST", "public_transport": "platform", "shelter": "yes"}}, {"type": "node", "id": 3467511840, "lat": 19.153788, "lon": 72.8388106, "tags": {"bench": "yes", "covered": "yes", "highway": "bus_stop", "name": "BEST Quarters", "operator": "BEST", "shelter": "yes"}}, {"type": "node", "id": 3467513331, "lat": 19.1537756, "lon": 72.8389945, "tags": {"highway": "bus_stop", "name": "BEST Quarters", "operator": "BEST"}}, {"type": "node", "id": 3467514928, "lat": 19.1531908, "lon": 72.8418998, "tags": {"bench": "yes", "bus": "yes", "covered": "yes", "highway": "bus_stop", "name": "BEST Nagar", "operator": "BEST", "public_transport": "platform", "shelter": "yes"}}, {"type": "node", "id": 3467519507, "lat": 19.1553842, "lon": 72.8364691, "tags": {"alt_name": "Sejal Park", "bench": "yes", "covered": "yes", "highway": "bus_stop", "name": "Bhagat Singh Nagar", "operator": "BEST", "shelter": "yes"}}, {"type": "node", "id": 3467522581, "lat": 19.1526529, "lon": 72.8357139, "tags": {"bench": "yes", "covered": "yes", "highway": "bus_stop", "name": "Oshiwara / Goregaon", "operator": "BEST", "shelter": "yes"}}, {"type": "node", "id": 3467526748, "lat": 19.1546032, "lon": 72.8353435, "tags": {"bench": "yes", "covered": "yes", "highway": "bus_stop", "name": "Goragaon Depot", "operator": "BEST", "shelter": "yes"}}, {"type": "node", "id": 3467536777, "lat": 19.1590341, "lon": 72.8431734, "tags": {"bench": "yes", "bus": "yes", "covered": "yes", "highway": "bus_stop", "name": "Siddarth Nagar / Vivek College", "operator": "BEST", "public_transport": "platform", "shelter": "yes"}}, {"type": "node", "id": 3467537631, "lat": 19.1590964, "lon": 72.8404664, "tags": {"bench": "yes", "bus": "yes", "covered": "yes", "highway": "bus_stop", "name": "Motilal Nagar Post Office", "operator": "BEST", "public_transport": "platform", "shelter": "yes"}}, {"type": "node", "id": 3467537925, "lat": 19.1600204, "lon": 72.8357679, "tags": {"bus": "yes", "highway": "bus_stop", "name": "Shastri Nagar", "operator": "BEST", "public_transport": "platform"}}, {"type": "node", "id": 3467537926, "lat": 19.1602875, "lon": 72.8349201, "tags": {"bench": "yes", "bus": "yes", "covered": "yes", "highway": "bus_stop", "name": "Shastri Nagar", "operator": "BEST", "public_transport": "platform", "shelter": "yes"}}, {"type": "node", "id": 3467539380, "lat": 19.1585064, "lon": 72.8436438, "tags": {"bench": "yes", "bin": "yes", "bus": "yes", "covered": "yes", "highway": "bus_stop", "lit": "yes", "name": "Vivek College", "operator": "BEST", "public_transport": "platform", "shelter": "yes"}}, {"type": "node", "id": 3518744772, "lat": 19.1157549, "lon": 72.9059323, "tags": {"bench": "yes", "bus": "yes", "highway": "bus_stop", "name": "Shetty Vidyalay", "operator": "B.E.S.T", "public_transport": "platform", "shelter": "yes"}}, {"type": "node", "id": 3523224212, "lat": 19.1462404, "lon": 72.9289053, "tags": {"highway": "bus_stop", "name": "Kokan Nagar"}}, {"type": "node", "id": 3529531729, "lat": 19.0440704, "lon": 72.8935618, "tags": {"highway": "bus_stop", "name": "Chembur Colony"}}, {"type": "node", "id": 3529567637, "lat": 19.0563052, "lon": 72.9300455, "tags": {"highway": "bus_stop", "name": "sathe nagar bus stop"}}, {"type": "node", "id": 3529572106, "lat": 19.0533797, "lon": 72.8974857, "tags": {"bus": "yes", "highway": "bus_stop", "name": "sandu wadi", "public_transport": "platform"}}, {"type": "node", "id": 3530947552, "lat": 19.0588081, "lon": 72.8870031, "tags": {"bus": "yes", "highway": "bus_stop", "name": "thakkar Bappa colony", "operator": "lekhraj", "public_transport": "platform"}}, {"type": "node", "id": 3530954289, "lat": 19.0588043, "lon": 72.8871131, "tags": {"bus": "yes", "highway": "bus_stop", "name": "thakkar Bappa colony", "public_transport": "platform"}}, {"type": "node", "id": 3533491618, "lat": 19.1574924, "lon": 72.8351265, "tags": {"bench": "yes", "bus": "yes", "highway": "bus_stop", "name": "Bhagat Singh Nagar", "public_transport": "platform", "shelter": "yes"}}, {"type": "node", "id": 3534580595, "lat": 19.0529281, "lon": 72.8991655, "tags": {"bus": "yes", "highway": "bus_stop", "name": "neeta volvo", "public_transport": "platform"}}, {"type": "node", "id": 3547849364, "lat": 19.0585892, "lon": 72.9078559, "tags": {"bus": "yes", "highway": "bus_stop", "name": "N G ACHARYA COLLEGE BUS STOP", "public_transport": "platform"}}, {"type": "node", "id": 3547896429, "lat": 19.0570053, "lon": 72.9096184, "tags": {"bus": "yes", "highway": "bus_stop", "name": "dadoji kondev nagar(khardev nagar)", "public_transport": "platform"}}, {"type": "node", "id": 3554037797, "lat": 19.1443582, "lon": 72.9343821, "tags": {"bench": "yes", "bin": "no", "bus": "yes", "highway": "bus_stop", "lit": "yes", "name": "ishwar nagar stop", "public_transport": "platform", "shelter": "yes"}}, {"type": "node", "id": 3562743827, "lat": 19.0891525, "lon": 72.9074443, "tags": {"bus": "yes", "highway": "bus_stop", "name": "Ghatkopar Station", "public_transport": "platform"}}, {"type": "node", "id": 3617109229, "lat": 19.118084, "lon": 72.8801296, "tags": {"bus": "yes", "highway": "bus_stop", "name": "marol maroshi", "public_transport": "platform"}}, {"type": "node", "id": 3634241262, "lat": 19.1183701, "lon": 72.8297505, "tags": {"bench": "yes", "bus": "yes", "highway": "bus_stop", "name": "New DN Nagar", "public_transport": "platform", "shelter": "yes"}}, {"type": "node", "id": 3767105938, "lat": 19.1275501, "lon": 72.8311016, "tags": {"bench": "yes", "bus": "yes", "highway": "bus_stop", "name": "Indian Oil Nagar", "public_transport": "platform", "shelter": "yes"}}, {"type": "node", "id": 3792254421, "lat": 19.1593202, "lon": 72.83632, "tags": {"bus": "yes", "highway": "bus_stop", "name": "Shastri Nagar", "public_transport": "platform"}}, {"type": "node", "id": 3926507483, "lat": 19.0534895, "lon": 72.8470962, "tags": {"bench": "yes", "bus": "yes", "covered": "yes", "highway": "bus_stop", "name": "Kalanagar Bus Station", "note": "Lines: 46, 52, 70, 75, 180, 473, 11, 255, 348, 355, 356, 375, 448, 505, C-72", "public_transport": "platform", "shelter": "yes"}}, {"type": "node", "id": 3930284458, "lat": 19.1960481, "lon": 72.9550002, "tags": {"bus": "yes", "highway": "bus_stop", "name": "Bradma Compound", "network": "Thane Muncipal Transport", "operator": "Thane Muncipal Transport", "public_transport": "platform"}}, {"type": "node", "id": 3930284459, "lat": 19.1959898, "lon": 72.9550243, "tags": {"bus": "yes", "highway": "bus_stop", "name": "Bradma Compound", "network": "Thane Muncipal Transport", "operator": "Thane Muncipal Transport", "public_transport": "platform"}}, {"type": "node", "id": 3930284460, "lat": 19.1976312, "lon": 72.9558773, "tags": {"bus": "yes", "highway": "bus_stop", "name": "Ambika Nagar", "network": "Thane Muncipal Transport", "operator": "Thane Muncipal Transport", "public_transport": "platform"}}, {"type": "node", "id": 3930284461, "lat": 19.1976008, "lon": 72.95577, "tags": {"bus": "yes", "highway": "bus_stop", "name": "Ambika Nagar", "network": "Thane Muncipal Transport", "operator": "Thane Muncipal Transport", "public_transport": "platform"}}, {"type": "node", "id": 3930284465, "lat": 19.2037497, "lon": 72.9541539, "tags": {"bus": "yes", "highway": "bus_stop", "name": "Kamgar Hospital", "network": "Thane Muncipal Transport", "operator": "Thane Muncipal Transport", "public_transport": "platform"}}, {"type": "node", "id": 3931917826, "lat": 19.2059344, "lon": 72.9542089, "tags": {"bus": "yes", "highway": "bus_stop", "name": "Sawarkar Nagar", "network": "Thane Muncipal Transport", "operator": "Thane Muncipal Transport", "public_transport": "platform"}}, {"type": "node", "id": 3931917834, "lat": 19.1870693, "lon": 72.9458731, "tags": {"highway": "bus_stop", "name": "Vaishali Nagar"}}, {"type": "node", "id": 3931942705, "lat": 19.2000566, "lon": 72.9538617, "tags": {"bus": "yes", "highway": "bus_stop", "name": "Agriculture", "network": "Thane Muncipal Transport", "operator": "Thane Muncipal Transport", "public_transport": "platform"}}, {"type": "node", "id": 3931942706, "lat": 19.2001883, "lon": 72.9540334, "tags": {"bus": "yes", "highway": "bus_stop", "name": "Agriculture", "network": "Thane Muncipal Transport", "operator": "Thane Muncipal Transport", "public_transport": "platform"}}, {"type": "node", "id": 3954998295, "lat": 19.1911655, "lon": 72.9555006, "tags": {"bus": "yes", "highway": "bus_stop", "name": "Passport Office / M.I.D.C.", "network": "Thane Muncipal Transport", "operator": "Thane Muncipal Transport", "public_transport": "platform"}}, {"type": "node", "id": 3981413853, "lat": 19.0659604, "lon": 72.9291639, "tags": {"highway": "bus_stop"}}, {"type": "node", "id": 3981413855, "lat": 19.0660706, "lon": 72.9289155, "tags": {"highway": "bus_stop"}}, {"type": "node", "id": 3981413856, "lat": 19.066092, "lon": 72.9292354, "tags": {"highway": "bus_stop"}}, {"type": "node", "id": 3981415657, "lat": 19.0662023, "lon": 72.9289927, "tags": {"highway": "bus_stop"}}, {"type": "node", "id": 3981415659, "lat": 19.0662254, "lon": 72.929306, "tags": {"highway": "bus_stop"}}, {"type": "node", "id": 3981415661, "lat": 19.0663357, "lon": 72.9290633, "tags": {"highway": "bus_stop"}}, {"type": "node", "id": 4014542566, "lat": 19.0603076, "lon": 72.8295088, "tags": {"bench": "yes", "bus": "yes", "highway": "bus_stop", "name": "Hong Kong Bank", "public_transport": "platform", "shelter": "yes"}}, {"type": "node", "id": 4109115231, "lat": 19.10773, "lon": 72.8368277, "tags": {"bench": "yes", "bus": "yes", "covered": "yes", "highway": "bus_stop", "name": "Dr.Cooper Hospital", "operator": "BEST", "public_transport": "platform", "shelter": "yes"}}, {"type": "node", "id": 4113603393, "lat": 19.176391, "lon": 72.9525539, "tags": {"highway": "bus_stop", "name": "PANCH RASTA"}}, {"type": "node", "id": 4133879203, "lat": 18.9552298, "lon": 72.8046655, "tags": {"highway": "bus_stop"}}, {"type": "node", "id": 4158101551, "lat": 19.2353185, "lon": 72.9759496, "tags": {"bus": "yes", "highway": "bus_stop", "name": "Manpada", "network": "Thane Muncipal Transport", "network:wikidata": "Q7710243", "operator": "Thane Muncipal Transport", "public_transport": "platform"}}, {"type": "node", "id": 4211019628, "lat": 19.1888027, "lon": 72.9633143, "tags": {"addr:city": "Thane (West)", "addr:street": "Eastern Express Highway", "bus": "yes", "highway": "bus_stop", "name": "Teen Hath Naka", "network": "Thane Municipal Transport", "network:en": "Thane Municipal Transport", "network:hi": "\u0920\u093e\u0923\u0947 \u0928\u0917\u0930\u092a\u093e\u0932\u093f\u0915\u093e \u092a\u0930\u093f\u0935\u0939\u0928", "network:wikidata": "Q7710243", "operator": "Thane Muncipal Transport", "public_transport": "platform"}}, {"type": "node", "id": 4211040735, "lat": 19.1720086, "lon": 72.9599368, "tags": {"highway": "bus_stop", "name": "Hospital", "name:en": "Municipal Hospital", "opening_hours": "24/7", "shelter": "yes"}}, {"type": "node", "id": 4211040736, "lat": 19.1719242, "lon": 72.9600031, "tags": {"highway": "bus_stop", "name": "Hospital", "name:en": "Municipal Hospital", "opening_hours": "24/7", "shelter": "yes"}}, {"type": "node", "id": 4211040737, "lat": 19.1716515, "lon": 72.958123, "tags": {"highway": "bus_stop", "name": "Mulund Station (East)", "shelter": "yes"}}, {"type": "node", "id": 4211040739, "lat": 19.1702031, "lon": 72.9590674, "tags": {"highway": "bus_stop"}}, {"type": "node", "id": 4211040740, "lat": 19.1701564, "lon": 72.9591168, "tags": {"highway": "bus_stop"}}, {"type": "node", "id": 4211040742, "lat": 19.1694785, "lon": 72.9591761, "tags": {"highway": "bus_stop"}}, {"type": "node", "id": 4211040743, "lat": 19.1695065, "lon": 72.9592196, "tags": {"highway": "bus_stop"}}, {"type": "node", "id": 4211040744, "lat": 19.1688948, "lon": 72.9601011, "tags": {"highway": "bus_stop"}}, {"type": "node", "id": 4211040745, "lat": 19.1688733, "lon": 72.9599806, "tags": {"highway": "bus_stop"}}, {"type": "node", "id": 4220016693, "lat": 19.1036419, "lon": 72.9209927, "tags": {"bus": "yes", "highway": "bus_stop", "name": "Godrej Bus Stop Gate 3", "public_transport": "platform"}}, {"type": "node", "id": 4233541816, "lat": 19.2466712, "lon": 72.9847606, "tags": {"bus": "yes", "highway": "bus_stop", "name": "Brahmand Phase 6", "network": "Thane Muncipal Transport", "operator": "Thane Muncipal Transport", "public_transport": "platform"}}, {"type": "node", "id": 4233856092, "lat": 19.201839, "lon": 72.9537029, "tags": {"bus": "yes", "highway": "bus_stop", "name": "Jai Bhawani Nagar", "network": "Thane Muncipal Transport", "operator": "Thane Muncipal Transport", "public_transport": "platform"}}, {"type": "node", "id": 4237791504, "lat": 19.1013571, "lon": 72.8725934, "tags": {"bus": "yes", "highway": "bus_stop", "name": "CSMI Airport Terminal 2", "operator": "BEST", "public_transport": "platform"}}, {"type": "node", "id": 4270149192, "lat": 19.2353564, "lon": 72.9762983, "tags": {"bus": "yes", "highway": "bus_stop", "name": "Manpada", "network": "Thane Municipal Transport", "network:en": "Thane Municipal Transport", "network:hi": "\u0920\u093e\u0923\u0947 \u0928\u0917\u0930\u092a\u093e\u0932\u093f\u0915\u093e \u092a\u0930\u093f\u0935\u0939\u0928", "network:wikidata": "Q7710243", "operator": "Thane Muncipal Transport", "public_transport": "platform"}}, {"type": "node", "id": 4270329891, "lat": 19.2695462, "lon": 72.9652023, "tags": {"bus": "yes", "highway": "bus_stop", "name": "Kasarvadavali Naka", "network": "Thane Muncipal Transport", "operator": "Thane Muncipal Transport", "public_transport": "platform", "ref": "356,1070,1635,2713,3506,", "route_ref": "54,60,65,69,75,"}}, {"type": "node", "id": 4294951436, "lat": 18.9644123, "lon": 72.8211647, "tags": {"highway": "bus_stop"}}, {"type": "node", "id": 4294951441, "lat": 18.9644751, "lon": 72.8210474, "tags": {"highway": "bus_stop"}}, {"type": "node", "id": 4294951445, "lat": 18.9645222, "lon": 72.8211824, "tags": {"highway": "bus_stop"}}, {"type": "node", "id": 4305515638, "lat": 19.0595311, "lon": 72.832103, "tags": {"bench": "yes", "bin": "no", "bus": "yes", "highway": "bus_stop", "name": "Moti Mahal", "operator": "BEST", "public_transport": "platform", "shelter": "yes", "wheelchair": "no"}}, {"type": "node", "id": 4305525330, "lat": 19.0594059, "lon": 72.832545, "tags": {"bench": "yes", "bus": "yes", "highway": "bus_stop", "name": "Moti Mahal", "operator": "BEST", "public_transport": "platform", "shelter": "yes", "wheelchair": "no"}}, {"type": "node", "id": 4305526331, "lat": 19.0605962, "lon": 72.8343053, "tags": {"bus": "yes", "highway": "bus_stop", "name": "Moti Mahal", "public_transport": "platform"}}, {"type": "node", "id": 4305528197, "lat": 19.0602239, "lon": 72.8343003, "tags": {"bus": "yes", "highway": "bus_stop", "name": "Moti Mahal", "public_transport": "platform"}}, {"type": "node", "id": 4307374890, "lat": 19.1991675, "lon": 72.8206544, "tags": {"highway": "bus_stop", "operator": "BEST"}}, {"type": "node", "id": 4312118497, "lat": 19.0328611, "lon": 72.8962597, "tags": {"highway": "bus_stop", "name": "Vasinaka Bus Stop "}}, {"type": "node", "id": 4312136399, "lat": 19.0329566, "lon": 72.8961803, "tags": {"highway": "bus_stop", "name": "Vasinaka Bus Stop "}}, {"type": "node", "id": 4326441990, "lat": 19.1024908, "lon": 72.888247, "tags": {"bus": "yes", "highway": "bus_stop", "name": "Maharashtra Weight Bridge", "operator": "BEST", "public_transport": "platform"}}, {"type": "node", "id": 4326459989, "lat": 19.0980844, "lon": 72.8878668, "tags": {"bus": "yes", "highway": "bus_stop", "name": "Shethiya Nagar", "operator": "BEST", "public_transport": "platform"}}, {"type": "node", "id": 4326462289, "lat": 19.0958775, "lon": 72.8878013, "tags": {"bus": "yes", "highway": "bus_stop", "name": "DSouza Nagar", "operator": "BEST", "public_transport": "platform"}}, {"type": "node", "id": 4326475989, "lat": 19.0998652, "lon": 72.8879689, "tags": {"bus": "yes", "highway": "bus_stop", "name": "Krishna Nagar", "operator": "BEST", "public_transport": "platform"}}, {"type": "node", "id": 4328161660, "lat": 19.0560018, "lon": 72.8450002, "tags": {"bench": "yes", "bus": "yes", "highway": "bus_stop", "public_transport": "platform", "shelter": "yes"}}, {"type": "node", "id": 4328161661, "lat": 19.0560195, "lon": 72.8452054, "tags": {"bench": "yes", "bin": "yes", "bus": "yes", "highway": "bus_stop", "public_transport": "platform", "shelter": "yes"}}, {"type": "node", "id": 4328161664, "lat": 19.0561666, "lon": 72.8450511, "tags": {"bus": "yes", "highway": "bus_stop", "public_transport": "platform"}}, {"type": "node", "id": 4328161665, "lat": 19.056178, "lon": 72.8451665, "tags": {"bus": "yes", "highway": "bus_stop", "public_transport": "platform", "shelter": "yes"}}, {"type": "node", "id": 4339824590, "lat": 19.1064314, "lon": 72.8879239, "tags": {"bus": "yes", "highway": "bus_stop", "public_transport": "platform"}}, {"type": "node", "id": 4339932592, "lat": 19.1125738, "lon": 72.8883909, "tags": {"bus": "yes", "highway": "bus_stop", "public_transport": "platform"}}, {"type": "node", "id": 4339959690, "lat": 19.1072697, "lon": 72.8880578, "tags": {"bus": "yes", "highway": "bus_stop", "name": "State Bank", "public_transport": "platform", "shelter": "yes"}}, {"type": "node", "id": 4339974093, "lat": 19.1074064, "lon": 72.8836645, "tags": {"bus": "yes", "highway": "bus_stop", "public_transport": "platform"}}, {"type": "node", "id": 4339981002, "lat": 19.1075866, "lon": 72.88045, "tags": {"bus": "yes", "highway": "bus_stop", "public_transport": "platform", "shelter": "yes"}}, {"type": "node", "id": 4339981499, "lat": 19.1055533, "lon": 72.885281, "tags": {"bus": "yes", "highway": "bus_stop", "public_transport": "platform", "shelter": "yes"}}, {"type": "node", "id": 4340004889, "lat": 19.1173423, "lon": 72.8896404, "tags": {"bus": "yes", "highway": "bus_stop", "name": "Local Karyalay", "public_transport": "platform"}}, {"type": "node", "id": 4340947500, "lat": 19.0954163, "lon": 72.9239959, "tags": {"access": "permissive", "bus": "yes", "highway": "bus_stop", "name": "Godrej East", "operator": "Godrej", "public_transport": "platform"}}, {"type": "node", "id": 4341054365, "lat": 18.965674, "lon": 72.8467809, "tags": {"bus": "yes", "highway": "bus_stop", "public_transport": "platform"}}, {"type": "node", "id": 4349254092, "lat": 19.1041282, "lon": 72.8746592, "tags": {"bench": "yes", "bus": "yes", "highway": "bus_stop", "public_transport": "platform", "shelter": "yes"}}, {"type": "node", "id": 4349254492, "lat": 19.0934244, "lon": 72.8557476, "tags": {"bench": "yes", "bus": "yes", "highway": "bus_stop", "public_transport": "platform", "shelter": "yes"}}, {"type": "node", "id": 4349256190, "lat": 19.1067432, "lon": 72.8750881, "tags": {"bench": "no", "bus": "yes", "highway": "bus_stop", "name:en": "Ekta Society", "public_transport": "platform", "shelter": "yes"}}, {"type": "node", "id": 4349263389, "lat": 19.1053241, "lon": 72.8859922, "tags": {"bus": "yes", "highway": "bus_stop", "public_transport": "platform"}}, {"type": "node", "id": 4349265289, "lat": 19.0976156, "lon": 72.8535743, "tags": {"bench": "no", "bin": "no", "bus": "yes", "covered": "no", "highway": "bus_stop", "name": "Centaur Hotel", "name:hi": "\u0938\u0947\u0902\u091f\u094c\u0930 \u0939\u094b\u091f\u0947\u0932", "public_transport": "platform", "shelter": "no", "sign": "yes"}}, {"type": "node", "id": 4367331982, "lat": 19.2205166, "lon": 72.9605147, "tags": {"bus": "yes", "highway": "bus_stop", "name": "Neelkanth Heights", "network": "Thane Muncipal Transport", "network:wikidata": "Q7710243", "operator": "Thane Muncipal Transport", "public_transport": "platform"}}, {"type": "node", "id": 4367377476, "lat": 19.2283998, "lon": 72.9823284, "tags": {"bus": "yes", "highway": "bus_stop", "name": "Kavyadhara", "network": "Thane Muncipal Transport", "network:wikidata": "Q7710243", "operator": "Thane Muncipal Transport", "public_transport": "platform"}}, {"type": "node", "id": 4367741661, "lat": 19.2668893, "lon": 72.9669569, "tags": {"bus": "yes", "highway": "bus_stop", "name": "Sainath Nagar", "network": "Thane Muncipal Transport", "network:wikidata": "Q7710243", "operator": "Thane Muncipal Transport", "public_transport": "platform"}}, {"type": "node", "id": 4367741685, "lat": 19.2599582, "lon": 72.9576677, "tags": {"bus": "yes", "highway": "bus_stop", "name": "Hawre City / Boriwade Gaon", "network": "Thane Muncipal Transport", "operator": "Thane Muncipal Transport", "public_transport": "platform"}}, {"type": "node", "id": 4375303347, "lat": 19.0549428, "lon": 72.8295354, "tags": {"bench": "yes", "bin": "no", "bus": "yes", "highway": "bus_stop", "lit": "no", "name": "St. Peter Church", "public_transport": "platform", "shelter": "yes"}}, {"type": "node", "id": 4396299492, "lat": 19.1063401, "lon": 72.8665226, "tags": {"bus": "yes", "highway": "bus_stop", "name:en": "OM Nagar bus stop", "public_transport": "platform"}}, {"type": "node", "id": 4406642094, "lat": 19.0967379, "lon": 72.9190376, "tags": {"bus": "yes", "highway": "bus_stop", "name:en": "Godrej soap", "operator": "Tegar nagar 5", "public_transport": "platform"}}, {"type": "node", "id": 4425991294, "lat": 19.1051473, "lon": 72.9128964, "tags": {"bus": "yes", "description": "387 last bus stop", "highway": "bus_stop", "name:en": "Parksite", "public_transport": "platform"}}, {"type": "node", "id": 4465931800, "lat": 19.039572, "lon": 72.8689282, "tags": {"bus": "yes", "highway": "bus_stop", "name": "Samaj mandir hall", "public_transport": "platform"}}, {"type": "node", "id": 4483496889, "lat": 19.1388906, "lon": 72.8635167, "tags": {"bench": "yes", "bus": "yes", "covered": "yes", "highway": "bus_stop", "name": "Shyam Nagar", "operator": "BEST", "public_transport": "platform", "shelter": "yes"}}, {"type": "node", "id": 4483498789, "lat": 19.1390311, "lon": 72.8634202, "tags": {"bench": "yes", "bus": "yes", "covered": "yes", "highway": "bus_stop", "name": "Shyam Nagar", "operator": "BEST", "public_transport": "platform", "shelter": "yes"}}, {"type": "node", "id": 4483498869, "lat": 19.1390436, "lon": 72.864928, "tags": {"bench": "yes", "bus": "yes", "covered": "yes", "highway": "bus_stop", "name": "Majas Depot", "operator": "BEST", "public_transport": "platform", "shelter": "yes"}}, {"type": "node", "id": 4483501889, "lat": 19.1392575, "lon": 72.8652021, "tags": {"bench": "no", "bus": "yes", "covered": "no", "highway": "bus_stop", "name": "Majas Depot", "operator": "BEST", "public_transport": "platform", "shelter": "no"}}, {"type": "node", "id": 4483785591, "lat": 19.0304901, "lon": 72.8542607, "tags": {"bus": "yes", "highway": "bus_stop", "public_transport": "platform"}}, {"type": "node", "id": 4483809689, "lat": 19.0325733, "lon": 72.8542242, "tags": {"bench": "yes", "bus": "yes", "highway": "bus_stop", "public_transport": "platform", "shelter": "yes"}}, {"type": "node", "id": 4513550299, "lat": 18.9551127, "lon": 72.8419397, "tags": {"addr:housenumber": "9167107111", "addr:street": "Kalyan Street", "bus": "yes", "highway": "bus_stop", "name:en": "Wadi Bunder B/H C.S.T Station", "public_transport": "platform", "shelter": "yes"}}, {"type": "node", "id": 4537804390, "lat": 19.2171897, "lon": 72.8475633, "tags": {"bus": "yes", "highway": "bus_stop", "name:en": "Saibaba Mandir", "public_transport": "platform", "wheelchair": "yes"}}, {"type": "node", "id": 4576708592, "lat": 19.1715185, "lon": 72.9341432, "tags": {"highway": "bus_stop", "name:en": "Jai Shastri Nagar", "operator": "BEST", "shelter": "no"}}, {"type": "node", "id": 4576710994, "lat": 19.1699829, "lon": 72.9322278, "tags": {"highway": "bus_stop", "name": "Highland Park", "name:en": "Highland Park", "operator": "BEST", "shelter": "no"}}, {"type": "node", "id": 4576736692, "lat": 19.1731899, "lon": 72.9346416, "tags": {"highway": "bus_stop", "name:en": "Mahatma Jyotiba Phule Chowk", "operator": "BEST"}}, {"type": "node", "id": 4576758098, "lat": 19.1682012, "lon": 72.9318798, "tags": {"highway": "bus_stop", "name": "Amar Nagar", "operator": "BEST", "ref": "37018", "shelter": "no"}}, {"type": "node", "id": 4576942191, "lat": 19.1747635, "lon": 72.9372081, "tags": {"highway": "bus_stop", "name:en": "Mulund Colony", "operator": "BEST"}}, {"type": "node", "id": 4577337990, "lat": 19.1729199, "lon": 72.9357134, "tags": {"highway": "bus_stop", "name": "Powai Chowk", "name:en": "Powai Chowk", "operator": "BEST", "shelter": "no"}}, {"type": "node", "id": 4583539494, "lat": 19.1760451, "lon": 72.9377018, "tags": {"highway": "bus_stop", "name": "Sri Chhatrapati Shivaji Maharaj Chowk", "name:en": "Shivaji Chowk", "operator": "BEST", "shelter": "no"}}, {"type": "node", "id": 4583566289, "lat": 19.1771575, "lon": 72.9388751, "tags": {"highway": "bus_stop", "name:en": "Hindustan Chowk", "operator": "BEST", "shelter": "yes"}}, {"type": "node", "id": 4583566290, "lat": 19.1778426, "lon": 72.9434199, "tags": {"highway": "bus_stop", "name:en": "Agra Road", "operator": "BEST", "shelter": "no"}}, {"type": "node", "id": 4583566389, "lat": 19.1779003, "lon": 72.9440539, "tags": {"highway": "bus_stop", "name:en": "Agra Road Naka", "operator": "BEST"}}, {"type": "node", "id": 4585359396, "lat": 19.2006977, "lon": 72.9611861, "tags": {"bus": "yes", "highway": "bus_stop", "name:en": "RAMCHANDRA NAGAR VAITIVADI 3", "operator": "Thane Muncipal Transport", "public_transport": "platform"}}, {"type": "node", "id": 4585364193, "lat": 19.2000703, "lon": 72.962506, "tags": {"bus": "yes", "highway": "bus_stop", "name:en": "Ramchandra Nagar 1", "network": "Thane Muncipal Transport", "operator": "Thane Muncipal Transport", "public_transport": "platform"}}, {"type": "node", "id": 4585364196, "lat": 19.1742351, "lon": 72.9584853, "tags": {"highway": "bus_stop", "name": "Mulund Court", "name:en": "Aanand Bajar", "operator": "BEST", "shelter": "yes"}}, {"type": "node", "id": 4585386589, "lat": 19.1626635, "lon": 72.946345, "tags": {"highway": "bus_stop", "name:en": "Sarvodaya Nagar"}}, {"type": "node", "id": 4585386592, "lat": 19.1928503, "lon": 72.9700614, "tags": {"bus": "yes", "highway": "bus_stop", "name:en": "Teen Petrol Pump", "network": "Thane Municipal Transport", "network:en": "Thane Municipal Transport", "network:hi": "\u0920\u093e\u0923\u0947 \u0928\u0917\u0930\u092a\u093e\u0932\u093f\u0915\u093e \u092a\u0930\u093f\u0935\u0939\u0928", "network:wikidata": "Q7710243", "operator": "Thane Muncipal Transport", "public_transport": "platform"}}, {"type": "node", "id": 4585386789, "lat": 19.1656642, "lon": 72.9487178, "tags": {"highway": "bus_stop", "name:en": "Mehul Talkies"}}, {"type": "node", "id": 4586990694, "lat": 18.8999829, "lon": 72.9850055, "tags": {"highway": "bus_stop", "name:en": "Navghar Phata", "operator": "NMMT"}}, {"type": "node", "id": 4587005797, "lat": 18.898271, "lon": 72.9820893, "tags": {"highway": "bus_stop", "name:en": "JNPT", "operator": "NMMT"}}, {"type": "node", "id": 4587027394, "lat": 18.8944153, "lon": 72.9768532, "tags": {"highway": "bus_stop", "name:en": "Phunde High School", "operator": "NMMT"}}, {"type": "node", "id": 4603533131, "lat": 18.9566859, "lon": 72.8420613, "tags": {"bus": "yes", "highway": "bus_stop", "note": "Bus station to goa Paulo Travel", "note:ru": "\u041e\u0441\u0442\u0430\u043d\u043e\u0432\u043a\u0430 \u0430\u0432\u0442\u043e\u0431\u0443\u0441\u043e\u0432 \u043d\u0430 \u0413\u043e\u0430 Paulo Travel", "public_transport": "platform"}}, {"type": "node", "id": 4621598593, "lat": 19.2546704, "lon": 72.8670451, "tags": {"highway": "bus_stop"}}, {"type": "node", "id": 4624037612, "lat": 19.1571337, "lon": 72.9471269, "tags": {"bus": "yes", "highway": "bus_stop", "name": "Nahur Railway Station", "public_transport": "platform"}}, {"type": "node", "id": 4624037619, "lat": 19.1600753, "lon": 72.9469725, "tags": {"bus": "yes", "highway": "bus_stop", "name": "Mulund-Goregaon Link Road", "public_transport": "platform"}}, {"type": "node", "id": 4624037634, "lat": 19.1550979, "lon": 72.9434127, "tags": {"bus": "yes", "highway": "bus_stop", "name": "Ceat Company", "public_transport": "platform"}}, {"type": "node", "id": 4624037638, "lat": 19.1532517, "lon": 72.9436928, "tags": {"bus": "yes", "highway": "bus_stop", "name": "Nahur Railway St.", "public_transport": "platform"}}, {"type": "node", "id": 4624037642, "lat": 19.1516463, "lon": 72.9435228, "tags": {"bus": "yes", "highway": "bus_stop", "name": "Bhandup Village (W)", "public_transport": "platform"}}, {"type": "node", "id": 4624037645, "lat": 19.1521752, "lon": 72.9414982, "tags": {"bus": "yes", "highway": "bus_stop", "name": "Usha Nagar", "public_transport": "stop_position"}}, {"type": "node", "id": 4624037656, "lat": 19.1453133, "lon": 72.9351741, "tags": {"bus": "yes", "highway": "bus_stop", "name": "Bhandup St (W)", "public_transport": "platform"}}, {"type": "node", "id": 4624037657, "lat": 19.1424705, "lon": 72.9327314, "tags": {"bus": "yes", "highway": "bus_stop", "name": "Janata Market Bhandup", "public_transport": "platform"}}, {"type": "node", "id": 4624037658, "lat": 19.1390033, "lon": 72.9306815, "tags": {"bus": "yes", "highway": "bus_stop", "name": "Mangatram Petrol Pump", "public_transport": "platform"}}, {"type": "node", "id": 4624037659, "lat": 19.1351758, "lon": 72.9288394, "tags": {"bus": "yes", "highway": "bus_stop", "name": "Birla Company", "public_transport": "platform"}}, {"type": "node", "id": 4624037660, "lat": 19.1321315, "lon": 72.9272826, "tags": {"bus": "yes", "highway": "bus_stop", "name": "Dockyard kanjurmarg St", "public_transport": "platform"}}, {"type": "node", "id": 4624037661, "lat": 19.129266, "lon": 72.9256346, "tags": {"bus": "yes", "highway": "bus_stop", "name": "Huma Talkies", "public_transport": "platform", "shelter": "yes"}}, {"type": "node", "id": 4624037663, "lat": 19.1244444, "lon": 72.925197, "tags": {"bus": "yes", "highway": "bus_stop", "name": "Gandhi Nagar Vikhroli", "public_transport": "platform"}}, {"type": "node", "id": 4624037664, "lat": 19.1218576, "lon": 72.925386, "tags": {"bus": "yes", "highway": "bus_stop", "name": "Hindustan Company", "public_transport": "platform", "shelter": "yes"}}, {"type": "node", "id": 4624037670, "lat": 19.1177512, "lon": 72.9259916, "tags": {"bus": "yes", "highway": "bus_stop", "name": "Paper Mill", "public_transport": "platform"}}, {"type": "node", "id": 4624037676, "lat": 19.1576887, "lon": 72.9435906, "tags": {"bus": "yes", "highway": "bus_stop", "name": "Hanuman Nagar Nahur", "public_transport": "stop_position"}}, {"type": "node", "id": 4625570571, "lat": 19.1082752, "lon": 72.9240782, "tags": {"bus": "yes", "highway": "bus_stop", "name": "Asha & Usha Estates", "public_transport": "stop_position"}}, {"type": "node", "id": 4625570573, "lat": 19.1544735, "lon": 72.9581137, "tags": {"bus": "yes", "highway": "bus_stop", "name": "Bhandup Pumping Centre", "public_transport": "stop_position"}}, {"type": "node", "id": 4625570574, "lat": 19.1453065, "lon": 72.935179, "tags": {"bus": "yes", "highway": "bus_stop", "name": "Bhandup Station (W)", "public_transport": "stop_position"}}, {"type": "node", "id": 4625570575, "lat": 19.1516367, "lon": 72.9435238, "tags": {"bus": "yes", "highway": "bus_stop", "name": "Bhandup Village (W)", "public_transport": "stop_position"}}, {"type": "node", "id": 4625570578, "lat": 19.1551008, "lon": 72.9433878, "tags": {"bus": "yes", "highway": "bus_stop", "name": "Ceat Company", "public_transport": "stop_position"}}, {"type": "node", "id": 4625570579, "lat": 19.1143057, "lon": 72.9261236, "tags": {"bus": "yes", "highway": "bus_stop", "name": "Cipla", "public_transport": "stop_position"}}, {"type": "node", "id": 4625570581, "lat": 19.1321171, "lon": 72.9273332, "tags": {"bus": "yes", "highway": "bus_stop", "name": "Dockyard kanjurmarg St", "public_transport": "stop_position"}}, {"type": "node", "id": 4625570582, "lat": 19.1244467, "lon": 72.9252165, "tags": {"bus": "yes", "highway": "bus_stop", "name": "Gandhi Nagar Vikhroli", "public_transport": "stop_position"}}, {"type": "node", "id": 4625570585, "lat": 19.1218513, "lon": 72.925423, "tags": {"bus": "yes", "highway": "bus_stop", "name": "Hindustan Company", "public_transport": "stop_position"}}, {"type": "node", "id": 4625570586, "lat": 19.1288065, "lon": 72.9255023, "tags": {"bus": "yes", "highway": "bus_stop", "name": "Huma Talkies", "public_transport": "stop_position"}}, {"type": "node", "id": 4625570588, "lat": 19.1523249, "lon": 72.9404673, "tags": {"bus": "yes", "highway": "bus_stop", "name": "Kasturi Vidyalay", "public_transport": "stop_position"}}, {"type": "node", "id": 4625570689, "lat": 19.1389677, "lon": 72.9307625, "tags": {"bus": "yes", "highway": "bus_stop", "name": "Mangatram Petrol Pump", "public_transport": "stop_position"}},